[{"name":"The Green Shutters in Portland","lat":50.568022,"lon":-2.442841},{"name":"Little Ship in Portland","lat":50.563299,"lon":-2.449436},{"name":"Royal Portland Arms in Portland","lat":50.559373,"lon":-2.442251},{"name":"The Kings Arms in Shaftesbury","lat":51.007011,"lon":-2.198346},{"name":"The Polhill Arms in Renhold","lat":52.161742,"lon":-0.420041},{"name":"The Digby Tap in Sherborne","lat":50.945165,"lon":-2.516491},{"name":"Gainsborough Arms in Milborne Port","lat":50.968033,"lon":-2.470388},{"name":"The Lime Tree in Thornford","lat":50.915802,"lon":-2.564204},{"name":"The Tippling Philosopher in Milborne Port","lat":50.966277,"lon":-2.461954},{"name":"Plume Of Feathers in Sherborne","lat":50.946233,"lon":-2.516083},{"name":"The Prince Of Wales in Ampthill","lat":52.033031,"lon":-0.494478},{"name":"The Rose and Crown in Bradford Abbas","lat":50.92616,"lon":-2.586484},{"name":"The Arch in Sherborne","lat":50.948815,"lon":-2.516105},{"name":"The White Hart in Sherborne","lat":50.949856,"lon":-2.517092},{"name":"The Prince Of Wales in Bromham","lat":52.14505,"lon":-0.535905},{"name":"The Stalbridge Arms in Stalbridge","lat":50.956677,"lon":-2.375492},{"name":"The Queen in Bedford","lat":52.136076,"lon":-0.485281},{"name":"Crows Nest in Swanage","lat":50.617797,"lon":-1.958454},{"name":"The Queens Head in Ampthill","lat":52.031676,"lon":-0.495135},{"name":"The Kings Arms in Langton Matravers","lat":50.609234,"lon":-2.0037},{"name":"The Red Lion in Elstow","lat":52.116572,"lon":-0.468699},{"name":"The Red Lion in Swanage","lat":50.607815,"lon":-1.95907},{"name":"The Royal Oak in Swanage","lat":50.609907,"lon":-1.981229},{"name":"The Red Lion in Wilstead","lat":52.081142,"lon":-0.449517},{"name":"Bankes Arms in Studland","lat":50.643036,"lon":-1.948475},{"name":"The White Swan in Swanage","lat":50.608148,"lon":-1.956678},{"name":"The Swans in Verwood","lat":50.876046,"lon":-1.873855},{"name":"The Drax Arms in Bere Regis","lat":50.753489,"lon":-2.218255},{"name":"Duke Of Wellington in Wareham","lat":50.686176,"lon":-2.109266},{"name":"The Horse and Groom in Wareham","lat":50.68476,"lon":-2.109088},{"name":"The Kings Arms in Stoborough","lat":50.677812,"lon":-2.109278},{"name":"The Kings Arms in Wareham","lat":50.687631,"lon":-2.110981},{"name":"Scott Arms in Corfe Castle","lat":50.616241,"lon":-2.062982},{"name":"The Admiral Hardy Pub in Weymouth","lat":50.607746,"lon":-2.474517},{"name":"The Black Dog in Weymouth","lat":50.610599,"lon":-2.453755},{"name":"The Legstraps in Wootton","lat":52.103669,"lon":-0.529669},{"name":"The Boot in Weymouth","lat":50.606295,"lon":-2.459536},{"name":"The Lodmoor in Weymouth","lat":50.625538,"lon":-2.44642},{"name":"The Rose and Crown in Ridgmont","lat":52.015952,"lon":-0.577425},{"name":"The Dolphin in Weymouth","lat":50.61404,"lon":-2.454594},{"name":"The Red Lion in Weymouth","lat":50.606173,"lon":-2.451791},{"name":"The Royal George in Stagsden","lat":52.13,"lon":-0.567021},{"name":"Duke Of Cornwall in Weymouth","lat":50.607577,"lon":-2.454156},{"name":"The Edinburgh House Of Sounds in Weymouth","lat":50.610525,"lon":-2.454278},{"name":"The New Vic in Weymouth","lat":50.609589,"lon":-2.453008},{"name":"The Royal George in Stevington","lat":52.167488,"lon":-0.556586},{"name":"Pie and Ale House in Weymouth","lat":50.615437,"lon":-2.453703},{"name":"The Globe in Weymouth","lat":50.607655,"lon":-2.453038},{"name":"The Golden Lion in Weymouth","lat":50.607877,"lon":-2.45465},{"name":"The Royal Oak in Kempston","lat":52.112015,"lon":-0.497888},{"name":"The John Gregory in Weymouth","lat":50.624446,"lon":-2.476904},{"name":"The Kings Arms in Portesham","lat":50.669857,"lon":-2.564159},{"name":"The Kings Arms in Weymouth","lat":50.606709,"lon":-2.455032},{"name":"The Royal Oak in Roxton","lat":52.177602,"lon":-0.315663},{"name":"The Market House in Weymouth","lat":50.608309,"lon":-2.453725},{"name":"The Park in Weymouth","lat":50.619221,"lon":-2.452015},{"name":"The Rock in Weymouth","lat":50.611377,"lon":-2.466087},{"name":"The Rodwell in Weymouth","lat":50.605287,"lon":-2.459781},{"name":"The Royal Oak in Weymouth","lat":50.62357,"lon":-2.455138},{"name":"The Royal Standard in Upwey","lat":50.659908,"lon":-2.46805},{"name":"The Royal Oak in Houghton Conquest","lat":52.062983,"lon":-0.474282},{"name":"The Sailors Return in Weymouth","lat":50.607873,"lon":-2.45633},{"name":"The Spice Ship in Preston","lat":50.646412,"lon":-2.418344},{"name":"The Spyglass in Overcombe","lat":50.634634,"lon":-2.429654},{"name":"The Star in Weymouth","lat":50.613092,"lon":-2.455504},{"name":"The Sunray in Osmington","lat":50.645092,"lon":-2.389397},{"name":"Waverley Arms in Weymouth","lat":50.611074,"lon":-2.469886},{"name":"The Wellington Arms in Weymouth","lat":50.608876,"lon":-2.454685},{"name":"The Wyke Smugglers in Weymouth","lat":50.593848,"lon":-2.475394},{"name":"The Albion in Wimborne","lat":50.799406,"lon":-1.987496},{"name":"The Glassblowers in Wimborne","lat":50.798983,"lon":-1.986985},{"name":"The Ginger Fox in Sturminster Marshall","lat":50.797731,"lon":-2.083829},{"name":"The Churchill Arms in Sturminster Marshall","lat":50.79593,"lon":-2.074035},{"name":"The Coach and Horses in Wimborne","lat":50.795031,"lon":-1.981225},{"name":"The Coventry Arms in Corfe Mullen","lat":50.786334,"lon":-2.037236},{"name":"The Dorset Soldier in Corfe Mullen","lat":50.767067,"lon":-2.019594},{"name":"Fox and Hounds in Stapehill","lat":50.79956,"lon":-1.937093},{"name":"Smiths Arms in Kempston","lat":52.119682,"lon":-0.488805},{"name":"Oddfellows Arms in Wimborne","lat":50.799694,"lon":-1.988475},{"name":"The Three Legged Cross in Three Legged Cross","lat":50.844223,"lon":-1.863365},{"name":"The Minster Arms in Wimborne","lat":50.79991,"lon":-1.99022},{"name":"Red Lion in Sturminster Marshall","lat":50.802614,"lon":-2.070725},{"name":"The Rising Sun in Wimborne","lat":50.798282,"lon":-1.986304},{"name":"The Sheaf Of Arrows in Cranborne","lat":50.91932,"lon":-1.922774},{"name":"The Willett Arms in Merley","lat":50.787066,"lon":-1.976505},{"name":"The Chequers in Battle","lat":50.913526,"lon":0.491139},{"name":"The Kings Arms in Ninfield","lat":50.885505,"lon":0.426653},{"name":"The Queens Head in Sedlescombe","lat":50.933097,"lon":0.535027},{"name":"The Senlac in Battle","lat":50.911683,"lon":0.492759},{"name":"The Sportsman in Bedford","lat":52.145926,"lon":-0.432457},{"name":"The White Hart in Catsfield","lat":50.897064,"lon":0.448551},{"name":"The Denbigh in Bexhill-On-Sea","lat":50.846285,"lon":0.446496},{"name":"St John Arms in Melchbourne","lat":52.284193,"lon":-0.49172},{"name":"Rose and Crown in Bexhill-On-Sea","lat":50.857367,"lon":0.457649},{"name":"The Royal Sovereign in Bexhill-On-Sea","lat":50.840751,"lon":0.477441},{"name":"The Sportsman in Bexhill-On-Sea","lat":50.839153,"lon":0.470075},{"name":"The Wheatsheaf in Bexhill-On-Sea","lat":50.845351,"lon":0.43323},{"name":"The Admiral in Brighton","lat":50.83184,"lon":-0.128853},{"name":"The Star and Garter in Silsoe","lat":52.007537,"lon":-0.424547},{"name":"The Prince Albert in Brighton","lat":50.828451,"lon":-0.140693},{"name":"The Star in Clapham","lat":52.160214,"lon":-0.492575},{"name":"The Plotting Parlour in Brighton","lat":50.820236,"lon":-0.135982},{"name":"The Basketmakers Arms in Brighton","lat":50.826617,"lon":-0.136819},{"name":"The Bat and Ball in Brighton","lat":50.830885,"lon":-0.13457},{"name":"The Bath Arms in Brighton","lat":50.822115,"lon":-0.141019},{"name":"The Battle Of Trafalgar in Brighton","lat":50.828872,"lon":-0.142462},{"name":"The Stone Jug in Clophill","lat":52.030624,"lon":-0.422834},{"name":"The Battle Of Trafalgar in Portslade","lat":50.836628,"lon":-0.216304},{"name":"Brighton Rocks in Brighton","lat":50.819981,"lon":-0.130976},{"name":"The Bear in Brighton","lat":50.83792,"lon":-0.123896},{"name":"The West Hill in Brighton","lat":50.830797,"lon":-0.142779},{"name":"The Black Horse in Brighton","lat":50.824079,"lon":-0.138656},{"name":"The Blue Anchor in Portslade","lat":50.830114,"lon":-0.208619},{"name":"The Bristol Arms in Brighton","lat":50.817312,"lon":-0.119497},{"name":"The Swan At Cranfield in Cranfield","lat":52.068274,"lon":-0.608201},{"name":"The Thomas Kemp in Brighton","lat":50.819382,"lon":-0.123865},{"name":"The New Bush in Brighton","lat":50.81519,"lon":-0.108098},{"name":"The Cleveland in Brighton","lat":50.842288,"lon":-0.138503},{"name":"The Swan in Flitwick","lat":52.00302,"lon":-0.494937},{"name":"Cobden Arms in Brighton","lat":50.830956,"lon":-0.12473},{"name":"The Colonnade in Brighton","lat":50.823308,"lon":-0.139635},{"name":"The French Horn in Brighton","lat":50.830068,"lon":-0.146982},{"name":"The Constant Service in Brighton","lat":50.829081,"lon":-0.126208},{"name":"County Oak in Brighton","lat":50.861127,"lon":-0.12837},{"name":"The Crescent in Brighton","lat":50.828398,"lon":-0.148712},{"name":"The Midway in Portslade","lat":50.832137,"lon":-0.21364},{"name":"Crown and Anchor in Brighton","lat":50.843162,"lon":-0.151611},{"name":"The Druids in Brighton","lat":50.831839,"lon":-0.134461},{"name":"The Druids Head in Brighton","lat":50.82176,"lon":-0.14015},{"name":"The Swan in Bromham","lat":52.144649,"lon":-0.528057},{"name":"The Duke Of Wellington in Brighton","lat":50.827628,"lon":-0.143255},{"name":"The Dyke in Brighton","lat":50.83865,"lon":-0.155074},{"name":"The Reservoir in Brighton","lat":50.831051,"lon":-0.127131},{"name":"The Evening Star in Brighton","lat":50.827761,"lon":-0.142028},{"name":"The Fiddlers Elbow in Brighton","lat":50.822095,"lon":-0.143575},{"name":"Fortune Of War in Brighton","lat":50.820344,"lon":-0.144623},{"name":"The Geese (Have Gone Over The Water) in Brighton","lat":50.829303,"lon":-0.130414},{"name":"Brighton Music Hall in Brighton","lat":50.820685,"lon":-0.146668},{"name":"The Eagle in Brighton","lat":50.82678,"lon":-0.136913},{"name":"Gladstone Arms in Brighton","lat":50.836838,"lon":-0.124599},{"name":"Mucky Duck in Brighton","lat":50.820784,"lon":-0.135709},{"name":"Good Companions in Brighton","lat":50.832132,"lon":-0.148111},{"name":"The Great Eastern in Brighton","lat":50.827984,"lon":-0.136047},{"name":"The Office in Brighton","lat":50.827336,"lon":-0.138055},{"name":"The Greys in Brighton","lat":50.82921,"lon":-0.130586},{"name":"Duke of Norfolk in Brighton","lat":50.825115,"lon":-0.155318},{"name":"Swan With Two Nicks in Sharnbrook","lat":52.225566,"lon":-0.543243},{"name":"The Hampton in Brighton","lat":50.825691,"lon":-0.149983},{"name":"Hand In Hand in Brighton","lat":50.819396,"lon":-0.127281},{"name":"The Harbour View in Portslade","lat":50.830168,"lon":-0.210505},{"name":"The Hare And Hounds in Brighton","lat":50.833399,"lon":-0.138321},{"name":"The Hartington in Brighton","lat":50.832569,"lon":-0.121777},{"name":"The Heart and Hand in Brighton","lat":50.825835,"lon":-0.139525},{"name":"The Hikers Rest in Brighton","lat":50.857773,"lon":-0.103297},{"name":"The Hobgoblin in Brighton","lat":50.829359,"lon":-0.135869},{"name":"The Hollingbury in Brighton","lat":50.840175,"lon":-0.130977},{"name":"Tamplins Ale House (Jolly Brewer) in Brighton","lat":50.838887,"lon":-0.133359},{"name":"The Katarina in Brighton","lat":50.812887,"lon":-0.10253},{"name":"The King and Queen in Brighton","lat":50.824606,"lon":-0.137017},{"name":"The Kings in Brighton","lat":50.821177,"lon":-0.134652},{"name":"The Ladies Mile in Patcham","lat":50.864347,"lon":-0.144927},{"name":"Caroline of Brunswick in Brighton","lat":50.830627,"lon":-0.134677},{"name":"The Lion and Lobster in Brighton","lat":50.823779,"lon":-0.154165},{"name":"The Long Man Of Wilmington in Patcham","lat":50.859649,"lon":-0.141634},{"name":"The Chimney House in Brighton","lat":50.835318,"lon":-0.148771},{"name":"Martha Gunn in Brighton","lat":50.835503,"lon":-0.127753},{"name":"The Mashtun in Brighton","lat":50.823857,"lon":-0.138938},{"name":"The Mile Oak in Brighton","lat":50.851478,"lon":-0.232214},{"name":"Montreal Arms in Brighton","lat":50.826336,"lon":-0.128416},{"name":"The White Rabbit in Brighton","lat":50.826778,"lon":-0.138619},{"name":"Grand Central in Brighton","lat":50.828642,"lon":-0.141963},{"name":"Park Crescent in Brighton","lat":50.833275,"lon":-0.130977},{"name":"The Park View in Brighton","lat":50.844172,"lon":-0.145118},{"name":"The Foundry in Brighton","lat":50.826561,"lon":-0.140035},{"name":"The Hope and Ruin in Brighton","lat":50.824706,"lon":-0.143176},{"name":"The Plough in Pyecombe","lat":50.896559,"lon":-0.164058},{"name":"The Pond in Brighton","lat":50.827168,"lon":-0.140799},{"name":"The Queens Head in Milton Ernest","lat":52.193124,"lon":-0.511672},{"name":"The Prestonville Arms in Brighton","lat":50.833723,"lon":-0.145485},{"name":"Prince George in Brighton","lat":50.827887,"lon":-0.136174},{"name":"The Prince Of Wales in Brighton","lat":50.823695,"lon":-0.146647},{"name":"Pull and Pump in Brighton","lat":50.823917,"lon":-0.148483},{"name":"Pump House in Brighton","lat":50.821492,"lon":-0.140223},{"name":"Quadrant Freehouse in Brighton","lat":50.824093,"lon":-0.143482},{"name":"The Queen Victoria in Rottingdean","lat":50.803737,"lon":-0.057334},{"name":"Queens Arms in Brighton","lat":50.821295,"lon":-0.134842},{"name":"Queens Head in Brighton","lat":50.828276,"lon":-0.141556},{"name":"Queensbury Arms in Brighton","lat":50.82189,"lon":-0.149474},{"name":"The Signalman in Brighton","lat":50.836018,"lon":-0.136202},{"name":"The Ranelagh in Brighton","lat":50.82085,"lon":-0.132863},{"name":"The Jolly Poacher in Brighton","lat":50.836113,"lon":-0.133421},{"name":"The Southover in Brighton","lat":50.827273,"lon":-0.126417},{"name":"Royal Oak in Poynings","lat":50.893554,"lon":-0.206793},{"name":"The Royal Sovereign in Brighton","lat":50.823623,"lon":-0.150868},{"name":"The Royal Standard in Brighton","lat":50.827663,"lon":-0.141851},{"name":"The Shakespeares Head in Brighton","lat":50.83179,"lon":-0.145601},{"name":"The Sir Charles Napier in Brighton","lat":50.827812,"lon":-0.127952},{"name":"The Setting Sun in Brighton","lat":50.824701,"lon":-0.129872},{"name":"The Three Cups in Bedford","lat":52.137228,"lon":-0.460481},{"name":"The Spanish Lady in Saltdean","lat":50.800454,"lon":-0.037768},{"name":"The Hop Poles in Brighton","lat":50.821292,"lon":-0.143321},{"name":"The Globe in Brighton","lat":50.820633,"lon":-0.143205},{"name":"Saint James in Brighton","lat":50.820685,"lon":-0.133917},{"name":"The Stags Head in Portslade","lat":50.843174,"lon":-0.220507},{"name":"The Joker in Brighton","lat":50.833902,"lon":-0.139061},{"name":"The Fiveways in Brighton","lat":50.843454,"lon":-0.134453},{"name":"The Three Tuns in Biddenham","lat":52.138312,"lon":-0.508306},{"name":"The Sussex in Brighton","lat":50.821289,"lon":-0.139397},{"name":"Sussex Yeoman in Brighton","lat":50.82872,"lon":-0.142698},{"name":"The Round Georges in Brighton","lat":50.823632,"lon":-0.120463},{"name":"The Edinburgh in Brighton","lat":50.82768,"lon":-0.143487},{"name":"The Tiger Moth in Bedford","lat":52.158809,"lon":-0.458958},{"name":"The Three Jolly Butchers in Brighton","lat":50.826104,"lon":-0.141406},{"name":"Victoria Arms in Wilden","lat":52.184092,"lon":-0.399855},{"name":"The Waggon and Horses in Brighton","lat":50.824237,"lon":-0.139153},{"name":"The Independent in Brighton","lat":50.826021,"lon":-0.127402},{"name":"The Wellington in Brighton","lat":50.831866,"lon":-0.125849},{"name":"The Ginger Dog in Brighton","lat":50.819579,"lon":-0.122112},{"name":"The Camelford Arms in Brighton","lat":50.820077,"lon":-0.132879},{"name":"William IV in Brighton","lat":50.824203,"lon":-0.139775},{"name":"The Windmill in Brighton","lat":50.82565,"lon":-0.148838},{"name":"The Fox on the Downs in Brighton","lat":50.832095,"lon":-0.112545},{"name":"The Coopers Arms in Crowborough","lat":51.064584,"lon":0.150311},{"name":"The Crow and Gate in Crowborough","lat":51.039939,"lon":0.126165},{"name":"The Crowborough Cross in Crowborough","lat":51.06044,"lon":0.161565},{"name":"The Kings Arms in Rotherfield","lat":51.045785,"lon":0.219874},{"name":"The Plough and Horses in Jarvis Brook","lat":51.042105,"lon":0.180727},{"name":"Bricklayers Arms in Crowborough","lat":51.048119,"lon":0.161724},{"name":"Arlington Arms in Eastbourne","lat":50.784028,"lon":0.304411},{"name":"The Buccaneer in Eastbourne","lat":50.762885,"lon":0.284866},{"name":"The White Hart in Maulden","lat":52.03033,"lon":-0.46826},{"name":"The Crown and Anchor in Eastbourne","lat":50.769036,"lon":0.294377},{"name":"The White Hart in Flitton","lat":52.010807,"lon":-0.458132},{"name":"The Dolphin in Eastbourne","lat":50.766315,"lon":0.279368},{"name":"Bath Brew House in Bath","lat":51.381238,"lon":-2.365238},{"name":"The Gildredge in Eastbourne","lat":50.769063,"lon":0.281782},{"name":"The White Horse in Bedford","lat":52.138947,"lon":-0.444093},{"name":"The Hart in Eastbourne","lat":50.771165,"lon":0.289147},{"name":"The Eagle in Eastbourne","lat":50.766308,"lon":0.281224},{"name":"Hurst Arms in Eastbourne","lat":50.778521,"lon":0.265195},{"name":"The Kings Arms in Eastbourne","lat":50.775066,"lon":0.296276},{"name":"The Lamb in Eastbourne","lat":50.7727,"lon":0.266834},{"name":"The White Horse in Husborne Crawley","lat":52.011422,"lon":-0.601341},{"name":"The Marine in Eastbourne","lat":50.77146,"lon":0.295174},{"name":"The Mill in Langney","lat":50.802286,"lon":0.296308},{"name":"The Prince Albert in Eastbourne","lat":50.772308,"lon":0.268277},{"name":"The Town House in Eastbourne","lat":50.767815,"lon":0.289485},{"name":"The Red Lion in Willingdon","lat":50.797285,"lon":0.251709},{"name":"The Rodmill in Eastbourne","lat":50.785562,"lon":0.267271},{"name":"The Woolpack in Wilstead","lat":52.081046,"lon":-0.448895},{"name":"The Plough in Bolnhurst","lat":52.215481,"lon":-0.40962},{"name":"Seven Sisters in Willingdon","lat":50.806626,"lon":0.252529},{"name":"The Plough in Langford","lat":52.060637,"lon":-0.269878},{"name":"The Mill in Rode","lat":51.287833,"lon":-2.285503},{"name":"The Brewers Arms in Herstmonceux","lat":50.889602,"lon":0.324214},{"name":"The Pembroke Arms in Biggleswade","lat":52.084692,"lon":-0.265557},{"name":"Kings Head in Hailsham","lat":50.857086,"lon":0.24985},{"name":"The Merry Harriers in Cowbeech","lat":50.907713,"lon":0.301588},{"name":"The Ashburnham Arms in Hastings","lat":50.867931,"lon":0.602917},{"name":"The Tub Man in Hastings","lat":50.855508,"lon":0.575536},{"name":"The Crown in Northill","lat":52.104798,"lon":-0.322777},{"name":"The Carlisle in Hastings","lat":50.854856,"lon":0.581674},{"name":"Cinque Port Arms in Hastings","lat":50.857558,"lon":0.593728},{"name":"The Clown in Hastings","lat":50.856358,"lon":0.58169},{"name":"The Cove in Fairlight","lat":50.877045,"lon":0.663315},{"name":"The Cutter in Hastings","lat":50.855831,"lon":0.589541},{"name":"Dripping Well in Hastings","lat":50.855442,"lon":0.575398},{"name":"The Duke Of Wellington in Hastings","lat":50.858215,"lon":0.592505},{"name":"First In Last Out in Hastings","lat":50.85883,"lon":0.593283},{"name":"The Gardeners Arms in Biggleswade","lat":52.09222,"lon":-0.259003},{"name":"The Hastings Arms in Hastings","lat":50.856308,"lon":0.590383},{"name":"Forbidden Fruits in Hastings","lat":50.86099,"lon":0.584614},{"name":"The London Trader in Hastings","lat":50.856148,"lon":0.591566},{"name":"The Golden Pheasant in Biggleswade","lat":52.086956,"lon":-0.262931},{"name":"The Lord Warden in Hastings","lat":50.864806,"lon":0.588562},{"name":"Millers Arms in Hastings","lat":50.876047,"lon":0.608558},{"name":"Mount Pleasant in Hastings","lat":50.865644,"lon":0.589943},{"name":"Old King John in Hastings","lat":50.87388,"lon":0.611211},{"name":"The Pig in Paradise in Hastings","lat":50.85427,"lon":0.575296},{"name":"The Hare and Hounds in Old Warden","lat":52.081122,"lon":-0.341747},{"name":"Robert De Mortain in Hastings","lat":50.882878,"lon":0.579942},{"name":"Brass Monkey in Hastings","lat":50.856168,"lon":0.578547},{"name":"The Royal Oak in Pett","lat":50.894344,"lon":0.668356},{"name":"The Royal Standard in Hastings","lat":50.856317,"lon":0.591958},{"name":"The Smuggler in Pett Level","lat":50.889587,"lon":0.687111},{"name":"The Stag in Hastings","lat":50.858774,"lon":0.595225},{"name":"The Jenny Lind in Hastings","lat":50.857375,"lon":0.591357},{"name":"Three Oaks in Three Oaks","lat":50.902059,"lon":0.6152},{"name":"The Two Sawyers in Pett","lat":50.893916,"lon":0.653878},{"name":"The March Hare in Dunton","lat":52.082876,"lon":-0.195932},{"name":"The Albion in Hove","lat":50.827803,"lon":-0.172138},{"name":"The Westbourne in Hove","lat":50.832789,"lon":-0.181875},{"name":"The Urchin in Hove","lat":50.830348,"lon":-0.175089},{"name":"The Bow Street Runner in Hove","lat":50.825465,"lon":-0.160047},{"name":"Coopers Cask in Hove","lat":50.826102,"lon":-0.159382},{"name":"The Poets Corner in Hove","lat":50.834173,"lon":-0.178844},{"name":"The Red Lion in Biggleswade","lat":52.086972,"lon":-0.25946},{"name":"The Grenadier in Hove","lat":50.844727,"lon":-0.194406},{"name":"Hangleton Manor in Hove","lat":50.848047,"lon":-0.205253},{"name":"The Blind Busker in Hove","lat":50.827429,"lon":-0.16723},{"name":"The Iron Duke in Hove","lat":50.823518,"lon":-0.157308},{"name":"The Paris House in Hove","lat":50.825377,"lon":-0.157316},{"name":"The Nevill in Hove","lat":50.847478,"lon":-0.18254},{"name":"The Palmeira in Hove","lat":50.832152,"lon":-0.160042},{"name":"The Stoneham in Hove","lat":50.833646,"lon":-0.186445},{"name":"The Better Half in Hove","lat":50.825616,"lon":-0.175183},{"name":"The Rose in Biggleswade","lat":52.087028,"lon":-0.262255},{"name":"Ancient Mariner in Hove","lat":50.83524,"lon":-0.182746},{"name":"The Seafield in Hove","lat":50.828102,"lon":-0.174818},{"name":"The Foragers in Hove","lat":50.830231,"lon":-0.176285},{"name":"The Sussex At Hove in Hove","lat":50.825518,"lon":-0.176156},{"name":"The Sussex Cricketer in Hove","lat":50.829672,"lon":-0.163673},{"name":"The Connaught in Hove","lat":50.828317,"lon":-0.179174},{"name":"The Brewers Arms in Lewes","lat":50.872007,"lon":0.006844},{"name":"The Bull on the Green in Newick","lat":50.97371,"lon":0.018603},{"name":"The Wheatsheaf in Biggleswade","lat":52.08934,"lon":-0.259421},{"name":"The Dorset in Lewes","lat":50.875135,"lon":0.019054},{"name":"Elephant and Castle in Lewes","lat":50.874908,"lon":0.008609},{"name":"The Foresters Arms in East Hoathly","lat":50.924306,"lon":0.161871},{"name":"The Gardeners Arms in Lewes","lat":50.8742,"lon":0.017938},{"name":"Horns Lodge in South Chailey","lat":50.946059,"lon":-0.020942},{"name":"The Jolly Sportsman in East Chiltington","lat":50.919491,"lon":-0.05027},{"name":"Whistle and Flute in Biggleswade","lat":52.085354,"lon":-0.266053},{"name":"The Juggs Arms in Kingston","lat":50.857167,"lon":-0.021539},{"name":"Kings Head in East Hoathly","lat":50.925946,"lon":0.16594},{"name":"The Kings Head in Lewes","lat":50.869557,"lon":0.007427},{"name":"The Kings Head in North Chailey","lat":50.971724,"lon":-0.019723},{"name":"The Lamb in Lewes","lat":50.873935,"lon":0.009867},{"name":"Lansdown Arms in Lewes","lat":50.871993,"lon":0.011479},{"name":"The Lewes Arms in Lewes","lat":50.874028,"lon":0.009398},{"name":"Pelham Arms in Lewes","lat":50.872403,"lon":0.002507},{"name":"The White Hart in Biggleswade","lat":52.086533,"lon":-0.26299},{"name":"Rights of Man in Lewes","lat":50.872801,"lon":0.009312},{"name":"The Royal Oak in Lewes","lat":50.872928,"lon":0.01071},{"name":"The Royal Oak in Newick","lat":50.972635,"lon":0.020058},{"name":"Tally Ho in Lewes","lat":50.879235,"lon":-0.000726},{"name":"The Volunteer in Lewes","lat":50.874454,"lon":0.01439},{"name":"The Engineer in Newhaven","lat":50.792487,"lon":0.056047},{"name":"The Wrestlers in Langford","lat":52.054951,"lon":-0.272083},{"name":"The Hampden Arms in South Heighton","lat":50.806638,"lon":0.057825},{"name":"The Prince Of Wales in Newhaven","lat":50.792214,"lon":0.050602},{"name":"The Smugglers Rest in Peacehaven","lat":50.795743,"lon":-0.022552},{"name":"The Yorkshire Grey in Biggleswade","lat":52.082034,"lon":-0.250985},{"name":"The Good Companions in Peacehaven","lat":50.797374,"lon":0.000726},{"name":"The Sussex Coaster in Peacehaven","lat":50.788881,"lon":0.012662},{"name":"The Moorings in Pevensey Bay","lat":50.812524,"lon":0.354502},{"name":"The Heron in Westham","lat":50.817559,"lon":0.327328},{"name":"The Red Lion in Stone Cross","lat":50.816707,"lon":0.291472},{"name":"The Dinkum in Polegate","lat":50.82257,"lon":0.244483},{"name":"The Giants Rest in Wilmington","lat":50.821878,"lon":0.193655},{"name":"The Junction in Polegate","lat":50.821651,"lon":0.251076},{"name":"The Salehurst Halt in Robertsbridge","lat":50.990677,"lon":0.49005},{"name":"The White Hart in Staplecross","lat":50.962358,"lon":0.529485},{"name":"Bedford Arms in Rye","lat":50.953817,"lon":0.735976},{"name":"Camber Castle in Camber","lat":50.935102,"lon":0.799137},{"name":"The Cock in Peasmarsh","lat":50.975318,"lon":0.684242},{"name":"The George in Rye","lat":50.950951,"lon":0.733509},{"name":"The Globe in Rye","lat":50.955912,"lon":0.735869},{"name":"The Hare and Hounds in Rye Foreign","lat":50.971224,"lon":0.705893},{"name":"Inkerman Arms in Rye","lat":50.938805,"lon":0.75996},{"name":"The Pipe Makers Arms in Rye","lat":50.950546,"lon":0.729947},{"name":"The Queens Head in Rye","lat":50.95329,"lon":0.735526},{"name":"The Rainbow Trout in Broad Oak","lat":50.948815,"lon":0.597231},{"name":"Rose and Crown in Beckley","lat":50.981892,"lon":0.621296},{"name":"The Bell in Toddington","lat":51.949714,"lon":-0.532708},{"name":"Cinque Ports in Seaford","lat":50.771631,"lon":0.104032},{"name":"The Shore in Seaford","lat":50.772379,"lon":0.100389},{"name":"The Old Plough in Seaford","lat":50.77138,"lon":0.101285},{"name":"The Seven Sisters in Seaford","lat":50.778757,"lon":0.115482},{"name":"The Wellington in Seaford","lat":50.770471,"lon":0.10162},{"name":"The Clarence in St. Leonards-On-Sea","lat":50.867447,"lon":0.55597},{"name":"The Comet in St. Leonards-On-Sea","lat":50.855846,"lon":0.530302},{"name":"The Duke in St. Leonards-On-Sea","lat":50.870554,"lon":0.556907},{"name":"Hollington Oak in St. Leonards-On-Sea","lat":50.871469,"lon":0.540009},{"name":"Horse and Groom in St. Leonards-On-Sea","lat":50.851786,"lon":0.557148},{"name":"The Nags Head in St. Leonards-On-Sea","lat":50.852273,"lon":0.558009},{"name":"The Dripping Spring in St. Leonards-On-Sea","lat":50.862431,"lon":0.558497},{"name":"Old England in St. Leonards-On-Sea","lat":50.853184,"lon":0.560131},{"name":"Paddy McGintys in St. Leonards-On-Sea","lat":50.873444,"lon":0.553184},{"name":"The Royal Albert in St. Leonards-On-Sea","lat":50.877084,"lon":0.550593},{"name":"The Carpenters Arms in Harlington","lat":51.962223,"lon":-0.492517},{"name":"The Tower in St. Leonards-On-Sea","lat":50.862167,"lon":0.557365},{"name":"The St Leonard in St. Leonards-On-Sea","lat":50.853,"lon":0.559795},{"name":"The Welcome Stranger in St. Leonards-On-Sea","lat":50.869339,"lon":0.556955},{"name":"The Rajdutt in Uckfield","lat":50.953951,"lon":0.114733},{"name":"The Brickmakers Arms in Uckfield","lat":50.956094,"lon":0.104057},{"name":"Halfway House in Isfield","lat":50.927975,"lon":0.074263},{"name":"The Hare and Hounds in Framfield","lat":50.963557,"lon":0.128059},{"name":"The White Lion in Dunstable","lat":51.901823,"lon":-0.545509},{"name":"The Rose and Crown in Fletching","lat":50.994286,"lon":0.034864},{"name":"The Broadway in Uckfield","lat":50.973963,"lon":0.097645},{"name":"The Royal Oak in Flimwell","lat":51.055969,"lon":0.446347},{"name":"Chequers in Houghton Regis","lat":51.906177,"lon":-0.513938},{"name":"The White Hart in Wadhurst","lat":51.062019,"lon":0.339315},{"name":"The Queens Head in Icklesham","lat":50.918706,"lon":0.670434},{"name":"The Cross Keys in Totternhoe","lat":51.886759,"lon":-0.577715},{"name":"The Crown in Houghton Regis","lat":51.905328,"lon":-0.51541},{"name":"The Castle Mayne in Basildon","lat":51.563892,"lon":0.445384},{"name":"The Wheatsheaf in Dunstable","lat":51.889852,"lon":-0.525783},{"name":"The Crane in Basildon","lat":51.582536,"lon":0.493311},{"name":"The Crown in Langdon Hills","lat":51.552736,"lon":0.421314},{"name":"The Four Seasons in Laindon","lat":51.575548,"lon":0.410871},{"name":"The Jolly Friar in Basildon","lat":51.582253,"lon":0.486508},{"name":"Noak Bridge in Noak Bridge","lat":51.588434,"lon":0.43864},{"name":"The Edge in Basildon","lat":51.570579,"lon":0.457216},{"name":"The Plough and Tractor in Basildon","lat":51.572444,"lon":0.441095},{"name":"Bread and Cheese in Benfleet","lat":51.562341,"lon":0.575828},{"name":"The Castle in Hadleigh","lat":51.552899,"lon":0.608453},{"name":"The Ewe and Lamb in Dunstable","lat":51.888954,"lon":-0.498526},{"name":"The Half Crown in Benfleet","lat":51.545414,"lon":0.562276},{"name":"The Hoy and Helmet in Benfleet","lat":51.545654,"lon":0.562233},{"name":"White Hart in Thundersley","lat":51.568824,"lon":0.582011},{"name":"Woodmans Arms in Thundersley","lat":51.569641,"lon":0.595278},{"name":"The Zach Willsher in Benfleet","lat":51.571681,"lon":0.560667},{"name":"The Dukes Head in Little Burstead","lat":51.606992,"lon":0.412184},{"name":"The Chequers in Billericay","lat":51.626089,"lon":0.418446},{"name":"Coach and Horses in Billericay","lat":51.624828,"lon":0.418202},{"name":"The Forge in Billericay","lat":51.637285,"lon":0.413778},{"name":"Fox and Hounds in Ramsden Heath","lat":51.626118,"lon":0.480909},{"name":"The Pilgrim in Billericay","lat":51.63163,"lon":0.409069},{"name":"The Ivory Rooms in Billericay","lat":51.620336,"lon":0.415796},{"name":"The White Horse in Ramsden Heath","lat":51.635985,"lon":0.473699},{"name":"The Angel in Braintree","lat":51.885961,"lon":0.556933},{"name":"The Boars Head in Braintree","lat":51.877749,"lon":0.548822},{"name":"The Bull in Braintree","lat":51.878133,"lon":0.552148},{"name":"The First and Last in Dunstable","lat":51.886961,"lon":-0.512403},{"name":"The Eagle in Braintree","lat":51.880058,"lon":0.560681},{"name":"Hare and Hounds in Braintree","lat":51.909926,"lon":0.578331},{"name":"Horse and Groom in Braintree","lat":51.879743,"lon":0.549557},{"name":"King William IV in Great Notley","lat":51.866486,"lon":0.539611},{"name":"The Glider in Dunstable","lat":51.874195,"lon":-0.513288},{"name":"The Nags Head in Braintree","lat":51.878305,"lon":0.552792},{"name":"The Onley Arms in Stisted","lat":51.892087,"lon":0.614403},{"name":"The Orange Tree in Braintree","lat":51.876173,"lon":0.574014},{"name":"The Globe in Dunstable","lat":51.888451,"lon":-0.526742},{"name":"The Swan in Rayne","lat":51.876009,"lon":0.513709},{"name":"The Swan in Braintree","lat":51.879221,"lon":0.551349},{"name":"The White Hart in Braintree","lat":51.879936,"lon":0.551188},{"name":"Wagon and Horses in Braintree","lat":51.876482,"lon":0.553066},{"name":"The Welsh Princess in Rayne","lat":51.875482,"lon":0.509306},{"name":"The Willows Freehouse in Cressing","lat":51.856267,"lon":0.602231},{"name":"The Harvest Home in Houghton Regis","lat":51.912832,"lon":-0.510638},{"name":"The New Crown in Bath","lat":51.385766,"lon":-2.388719},{"name":"The Alma Arms in Navestockside","lat":51.640005,"lon":0.22513},{"name":"The Black Horse in Pilgrims Hatch","lat":51.637846,"lon":0.278615},{"name":"Boars Head in Herongate","lat":51.594783,"lon":0.353837},{"name":"The Brave Nelson in Brentwood","lat":51.608836,"lon":0.306994},{"name":"Bricklayers Arms in Stondon Massey","lat":51.681242,"lon":0.290385},{"name":"The Bull in Brentwood","lat":51.611702,"lon":0.273593},{"name":"The Chequers in Brentwood","lat":51.633121,"lon":0.352629},{"name":"Cherry Tree in Brentwood","lat":51.606144,"lon":0.299141},{"name":"The Eagle and Child in Shenfield","lat":51.6305,"lon":0.321699},{"name":"The Eagle in Kelvedon Hatch","lat":51.664357,"lon":0.271482},{"name":"Essex Arms in Brentwood","lat":51.612873,"lon":0.299227},{"name":"Halfway House in West Horndon","lat":51.579849,"lon":0.355577},{"name":"The Gardeners Arms in Brentwood","lat":51.618975,"lon":0.298647},{"name":"The Hutton in Brentwood","lat":51.631696,"lon":0.333466},{"name":"The Willow in Doddinghurst","lat":51.667774,"lon":0.298065},{"name":"The Nags Head in Brentwood","lat":51.610648,"lon":0.271568},{"name":"The Horse and Jockey in Kensworth","lat":51.859032,"lon":-0.480829},{"name":"The Plough in Mountnessing","lat":51.655435,"lon":0.357501},{"name":"The Rising Sun in Brentwood","lat":51.624944,"lon":0.300729},{"name":"The Robin in Brentwood","lat":51.628239,"lon":0.294895},{"name":"The Shepherd in Kelvedon Hatch","lat":51.662985,"lon":0.276608},{"name":"The Spread Eagle in Brentwood","lat":51.618132,"lon":0.303559},{"name":"Thatchers Arms in Great Warley","lat":51.593014,"lon":0.284268},{"name":"The White Horse in Coxtie Green","lat":51.64038,"lon":0.258371},{"name":"The Bald Faced Stag in Buckhurst Hill","lat":51.624222,"lon":0.031231},{"name":"The Kings Arms in Houghton Regis","lat":51.904211,"lon":-0.521501},{"name":"Warren Wood in Buckhurst Hill","lat":51.633655,"lon":0.031671},{"name":"The New Welcome Sailor in Burnham-On-Crouch","lat":51.630232,"lon":0.815455},{"name":"The Bird in Hand in Dunstable","lat":51.893499,"lon":-0.531957},{"name":"The Haystack in Canvey Island","lat":51.52056,"lon":0.592532},{"name":"Windjammer in Canvey Island","lat":51.513151,"lon":0.600855},{"name":"The Anchor in Chelmsford","lat":51.728157,"lon":0.46915},{"name":"The Anchor in Danbury","lat":51.718181,"lon":0.598665},{"name":"The Angel in Broomfield","lat":51.762324,"lon":0.473531},{"name":"The Bakers Arms in Danbury","lat":51.716487,"lon":0.582962},{"name":"The Bay Horse in Chelmsford","lat":51.727757,"lon":0.469528},{"name":"The Bell in Rettendon Common","lat":51.655013,"lon":0.548458},{"name":"The Bell in Purleigh","lat":51.686217,"lon":0.662523},{"name":"The Bell in Danbury","lat":51.718467,"lon":0.566096},{"name":"Bird In Hand in Chelmsford","lat":51.730314,"lon":0.46428},{"name":"The Black Bull in Chelmsford","lat":51.740191,"lon":0.454721},{"name":"Blue Lion in Great Baddow","lat":51.718375,"lon":0.498988},{"name":"Brewers Arms in Bicknacre","lat":51.689549,"lon":0.585492},{"name":"The Clay Pigeon in Chelmsford","lat":51.710669,"lon":0.467019},{"name":"The Blue Bridge in Writtle","lat":51.729673,"lon":0.430183},{"name":"The Compasses in Chelmsford","lat":51.744475,"lon":0.466446},{"name":"The Cross Keys in Hatfield Peverel","lat":51.770662,"lon":0.607377},{"name":"The Curlew in South Woodham Ferrers","lat":51.638783,"lon":0.606928},{"name":"The Oddfellows Arms in Toddington","lat":51.949079,"lon":-0.531527},{"name":"The Dog and Partridge in Great Leighs","lat":51.832811,"lon":0.510909},{"name":"Duke Of Wellington in Hatfield Peverel","lat":51.777492,"lon":0.599377},{"name":"Eagle and Hind in Chelmsford","lat":51.716101,"lon":0.473055},{"name":"The Eagle in Chelmsford","lat":51.698076,"lon":0.466261},{"name":"The Endeavour in Chelmsford","lat":51.742801,"lon":0.495178},{"name":"The Flyer in Chelmsford","lat":51.755209,"lon":0.445976},{"name":"The Fox and Goose in Cooksmill Green","lat":51.728919,"lon":0.440207},{"name":"Fox and Hounds in Cock Clarks","lat":51.693707,"lon":0.626263},{"name":"Fox and Raven in Chelmsford","lat":51.731256,"lon":0.497584},{"name":"The Rose and Crown in Great Waltham","lat":51.790051,"lon":0.465346},{"name":"The Hare in Roxwell","lat":51.74833,"lon":0.402483},{"name":"Horse and Groom in Writtle","lat":51.741321,"lon":0.434096},{"name":"Huntsman and Hounds in Althorne","lat":51.670044,"lon":0.755026},{"name":"The Rose and Crown in Writtle","lat":51.730709,"lon":0.426084},{"name":"The Kings Arms in Broomfield","lat":51.766097,"lon":0.471577},{"name":"The Kings Head in Great Baddow","lat":51.718168,"lon":0.503233},{"name":"The Leather Bottle in Pleshey","lat":51.804842,"lon":0.414394},{"name":"The Lion in Latchingdon","lat":51.671391,"lon":0.720393},{"name":"The Nags Head in Chelmsford","lat":51.730421,"lon":0.474583},{"name":"The Norton in Cold Norton","lat":51.672028,"lon":0.672307},{"name":"The Oddfellows Arms in Chelmsford","lat":51.73632,"lon":0.482794},{"name":"Old Red Lion in Houghton Regis","lat":51.909427,"lon":-0.527442},{"name":"The Orange Tree in Chelmsford","lat":51.728942,"lon":0.465781},{"name":"The Plough in Chelmsford","lat":51.736436,"lon":0.46808},{"name":"Pig and Whistle in Chignal Smealey","lat":51.774196,"lon":0.429095},{"name":"The Prince Of Wales in Stow Maries","lat":51.662854,"lon":0.645722},{"name":"The Queens Head in Boreham","lat":51.758006,"lon":0.543101},{"name":"The Golden Fleece in Chelmsford","lat":51.734842,"lon":0.471489},{"name":"Red Beret in Chelmsford","lat":51.749351,"lon":0.454001},{"name":"The Lion in Boreham","lat":51.758064,"lon":0.530395},{"name":"The Red Lion in Chelmsford","lat":51.737699,"lon":0.485115},{"name":"The New London in Chelmsford","lat":51.72849,"lon":0.467262},{"name":"Rising Sun in Chelmsford","lat":51.723329,"lon":0.461149},{"name":"Royal Steamer in Chelmsford","lat":51.737407,"lon":0.467348},{"name":"The Running Mare in Chelmsford","lat":51.702738,"lon":0.46312},{"name":"The Old Sun in Harlington","lat":51.961309,"lon":-0.492507},{"name":"The Ship in Chelmsford","lat":51.737712,"lon":0.46591},{"name":"The Sir Evelyn Wood in Chelmsford","lat":51.719916,"lon":0.454967},{"name":"The Six Bells in Boreham","lat":51.764401,"lon":0.54804},{"name":"The Gardeners in Springfield","lat":51.753927,"lon":0.494256},{"name":"The Square and Compasses in Fairstead","lat":51.816159,"lon":0.534245},{"name":"Star and Garter in Chelmsford","lat":51.728609,"lon":0.46988},{"name":"The Star in Great Baddow","lat":51.723844,"lon":0.485374},{"name":"The Swan in Hatfield Peverel","lat":51.775371,"lon":0.592528},{"name":"Sweethearts in South Woodham Ferrers","lat":51.644051,"lon":0.617913},{"name":"The Three Compasses in West Hanningfield","lat":51.670361,"lon":0.49805},{"name":"The Three Horseshoes in Althorne","lat":51.655221,"lon":0.764219},{"name":"The Town Crier in South Woodham Ferrers","lat":51.644129,"lon":0.618076},{"name":"The Tulip in Springfield","lat":51.744163,"lon":0.48478},{"name":"The Two Brewers in Chelmsford","lat":51.73346,"lon":0.478891},{"name":"The Two Saxons in Chelmsford","lat":51.746077,"lon":0.48913},{"name":"The Walnut Tree in Great Waltham","lat":51.784812,"lon":0.454867},{"name":"The Wheatsheaf in Writtle","lat":51.731281,"lon":0.426192},{"name":"The White Bear in Chelmsford","lat":51.700517,"lon":0.47194},{"name":"The White Horse in Chelmsford","lat":51.737845,"lon":0.468657},{"name":"The Red Lion in Studham","lat":51.831633,"lon":-0.517333},{"name":"The White Horse in Great Baddow","lat":51.715343,"lon":0.501315},{"name":"The Woolpack in Chelmsford","lat":51.729419,"lon":0.475166},{"name":"The Forester in Chigwell","lat":51.612437,"lon":0.112011},{"name":"Saracens Head in Dunstable","lat":51.885308,"lon":-0.519742},{"name":"The Maypole in Chigwell Row","lat":51.619711,"lon":0.113591},{"name":"The Two Brewers in Chigwell","lat":51.621634,"lon":0.120615},{"name":"The Blacksmith Arms in Little Clacton","lat":51.826375,"lon":1.142731},{"name":"Brace Of Pistols in Clacton-On-Sea","lat":51.803574,"lon":1.128913},{"name":"The Crown in Thorpe-Le-Soken","lat":51.857715,"lon":1.162254},{"name":"The Sportsman in Dunstable","lat":51.892978,"lon":-0.497139},{"name":"The Kings Arms in St. Osyth","lat":51.800651,"lon":1.078168},{"name":"The Star and Garter in Dunstable","lat":51.883065,"lon":-0.515922},{"name":"Never Say Die in Jaywick","lat":51.775098,"lon":1.119726},{"name":"The Plough in Clacton-On-Sea","lat":51.805077,"lon":1.15477},{"name":"The Queens Head in Clacton-On-Sea","lat":51.804793,"lon":1.154594},{"name":"The Red Lion in St. Osyth","lat":51.799459,"lon":1.078711},{"name":"The Roaring Donkey in Clacton-On-Sea","lat":51.802378,"lon":1.181116},{"name":"The Robert Burre in Clacton-On-Sea","lat":51.812569,"lon":1.172489},{"name":"The Robin Hood in Clacton-On-Sea","lat":51.80807,"lon":1.149551},{"name":"The Rose and Crown in Thorpe-Le-Soken","lat":51.859228,"lon":1.159954},{"name":"Sailor Boy Freehouse in St. Osyth","lat":51.772608,"lon":1.08703},{"name":"Seagulls in St. Osyth","lat":51.776913,"lon":1.086498},{"name":"The Seldrake in Jaywick","lat":51.773899,"lon":1.113199},{"name":"The Highwayman in Dunstable","lat":51.875406,"lon":-0.504668},{"name":"Three Jays in Jaywick","lat":51.782487,"lon":1.119693},{"name":"Tom Peppers in Clacton-On-Sea","lat":51.787435,"lon":1.153693},{"name":"The White Hart in Weeley Heath","lat":51.844381,"lon":1.123169},{"name":"The Alma in Copford","lat":51.869395,"lon":0.798914},{"name":"The Anchor in Rowhedge","lat":51.855992,"lon":0.948741},{"name":"The Anchor in Stratford St. Mary","lat":51.970332,"lon":0.979385},{"name":"The Ancient Briton in Colchester","lat":51.870768,"lon":0.875436},{"name":"The Heckford Angel in Colchester","lat":51.860212,"lon":0.824475},{"name":"The Beehive in Colchester","lat":51.896984,"lon":0.948111},{"name":"The Beehive in Little Horkesley","lat":51.952904,"lon":0.851929},{"name":"The Bird In Hand in Earls Colne","lat":51.908579,"lon":0.696556},{"name":"The Black Horse in Stratford St. Mary","lat":51.966126,"lon":0.972146},{"name":"The Travellers Rest in Edlesborough","lat":51.850784,"lon":-0.580108},{"name":"Brewers Arms in Polstead","lat":52.02865,"lon":0.895692},{"name":"The Brewers Arms in Colchester","lat":51.887593,"lon":0.900056},{"name":"The Brewers Arms in Brightlingsea","lat":51.810551,"lon":1.025612},{"name":"The Bricklayers Arms in Little Bentley","lat":51.890134,"lon":1.072684},{"name":"The Bricklayers in Colchester","lat":51.902038,"lon":0.894197},{"name":"The Britannia in Colchester","lat":51.87918,"lon":0.902466},{"name":"The Victoria in Dunstable","lat":51.884908,"lon":-0.524419},{"name":"The British Grenadier in Colchester","lat":51.881749,"lon":0.91077},{"name":"The Bull in Colchester","lat":51.887547,"lon":0.894995},{"name":"The Carriers Arms in East Bergholt","lat":51.977992,"lon":1.019012},{"name":"The Castle in Earls Colne","lat":51.927132,"lon":0.702425},{"name":"The Chequers in Great Tey","lat":51.89863,"lon":0.746797},{"name":"Cherry Tree in Colchester","lat":51.858226,"lon":0.909975},{"name":"The Cherry Tree in Brightlingsea","lat":51.815645,"lon":1.0222},{"name":"The Purple Dog in Colchester","lat":51.888014,"lon":0.899376},{"name":"The Coopers Arms in Aldham","lat":51.90831,"lon":0.790603},{"name":"The Lexden Crown in Colchester","lat":51.889994,"lon":0.858218},{"name":"The Dog and Pheasant in Colchester","lat":51.912865,"lon":0.891072},{"name":"The Dog and Pheasant in East Mersea","lat":51.792078,"lon":0.979855},{"name":"The Five Bells in Colne Engaine","lat":51.940379,"lon":0.691886},{"name":"The Creek in Great Bentley","lat":51.820213,"lon":1.070272},{"name":"The Foresters Arms in Colchester","lat":51.891637,"lon":0.906378},{"name":"The Fox and Fiddler in Colchester","lat":51.88763,"lon":0.896329},{"name":"The Layer Fox in Layer-De-La-Haye","lat":51.843904,"lon":0.855324},{"name":"The George in Colchester","lat":51.890039,"lon":0.901187},{"name":"The Goat and Boot in Colchester","lat":51.890053,"lon":0.91136},{"name":"The Greyhound in Wivenhoe","lat":51.856271,"lon":0.959101},{"name":"Bird In Hand in Lower Stondon","lat":52.007353,"lon":-0.304913},{"name":"Hare and Hounds in Leavenheath","lat":52.000378,"lon":0.849075},{"name":"The Hare and Hounds in East Bergholt","lat":51.978313,"lon":1.022267},{"name":"The Hole In The Wall in Colchester","lat":51.88816,"lon":0.893883},{"name":"The Kings Arms in Colchester","lat":51.887823,"lon":0.892542},{"name":"The Kings Arms in Frating","lat":51.868942,"lon":1.035003},{"name":"The Engineers Arms in Henlow","lat":52.032011,"lon":-0.285598},{"name":"The Kings Head in Brightlingsea","lat":51.811338,"lon":1.024425},{"name":"The Kings Head in East Bergholt","lat":51.96894,"lon":1.022335},{"name":"The Leather Bottle in Colchester","lat":51.872808,"lon":0.861096},{"name":"The Lion in Earls Colne","lat":51.927846,"lon":0.698787},{"name":"The Lion in Ardleigh","lat":51.927025,"lon":0.98514},{"name":"Little Crown in Colchester","lat":51.887867,"lon":0.902791},{"name":"Live and Let Live in Stanway","lat":51.887259,"lon":0.840411},{"name":"The Marquis Of Granby in Colchester","lat":51.89204,"lon":0.896607},{"name":"The Norfolk in Colchester","lat":51.898074,"lon":0.894814},{"name":"The Bonnie Blue Oak in Tiptree","lat":51.821681,"lon":0.745275},{"name":"The Odd One Out in Colchester","lat":51.884045,"lon":0.903504},{"name":"The Old Anchor in Feering","lat":51.843772,"lon":0.715484},{"name":"The Old Queens Head in Aldham","lat":51.907584,"lon":0.790522},{"name":"The Peldon Plough in Peldon","lat":51.810631,"lon":0.885429},{"name":"The Star in Leighton Buzzard","lat":51.937009,"lon":-0.656502},{"name":"The Prettygate in Lexden","lat":51.880599,"lon":0.865091},{"name":"Queens Head in West Bergholt","lat":51.909617,"lon":0.847497},{"name":"The Queens Head in Great Wenham","lat":52.008544,"lon":1.019394},{"name":"The Queens in Colchester","lat":51.87608,"lon":0.900771},{"name":"The Red Lion in East Bergholt","lat":51.971555,"lon":1.01156},{"name":"The Red Lion in Marks Tey","lat":51.877187,"lon":0.76034},{"name":"The Red Lion in Thorrington","lat":51.838747,"lon":1.04309},{"name":"The Rose and Crown in Great Horkesley","lat":51.951802,"lon":0.872493},{"name":"The Rose and Crown in Wivenhoe","lat":51.854425,"lon":0.95882},{"name":"The Rosebud in Brightlingsea","lat":51.809831,"lon":1.032624},{"name":"Royal Mortar in Colchester","lat":51.881124,"lon":0.912878},{"name":"The Royal Oak in East Bergholt","lat":51.975252,"lon":1.056168},{"name":"The Fat Cat in Colchester","lat":51.885552,"lon":0.894198},{"name":"The Top Bell in Leighton Buzzard","lat":51.916055,"lon":-0.660939},{"name":"The Shepherd in Langham","lat":51.946615,"lon":0.934674},{"name":"The Silver Oyster in Colchester","lat":51.863592,"lon":0.906094},{"name":"The Snooty Fox in Great Bromley","lat":51.874773,"lon":1.03698},{"name":"The Spinnaker in Colchester","lat":51.882518,"lon":0.926644},{"name":"The Stockwell Arms in Colchester","lat":51.891576,"lon":0.899119},{"name":"The Golden Bell in Leighton Buzzard","lat":51.91538,"lon":-0.664415},{"name":"The Swan in Stratford St. Mary","lat":51.968167,"lon":0.972557},{"name":"The Swan in Stanway","lat":51.882275,"lon":0.810178},{"name":"The White Hart in Coggeshall","lat":51.870772,"lon":0.685709},{"name":"The Three Horseshoes in Fordham","lat":51.918877,"lon":0.801978},{"name":"The Red Herring in West Bergholt","lat":51.914976,"lon":0.853101},{"name":"The Red Lion in Leighton Buzzard","lat":51.916823,"lon":-0.661132},{"name":"The White Hart in Stanway","lat":51.883403,"lon":0.814143},{"name":"The White Hart in West Bergholt","lat":51.919569,"lon":0.848389},{"name":"The Wooden Fender in Ardleigh","lat":51.922692,"lon":0.972969},{"name":"The Yachtsmans Arms in Brightlingsea","lat":51.806273,"lon":1.023766},{"name":"The Admiral Vernon in Dagenham","lat":51.535565,"lon":0.151362},{"name":"The Cherry Tree in Dagenham","lat":51.552673,"lon":0.134979},{"name":"The Eastbrook in Dagenham","lat":51.551538,"lon":0.161125},{"name":"The Stag in Leighton Buzzard","lat":51.923149,"lon":-0.660166},{"name":"The Beacon Tree in Dagenham","lat":51.561346,"lon":0.141642},{"name":"The Roundhouse in Dagenham","lat":51.542678,"lon":0.113553},{"name":"The Three Travellers in Dagenham","lat":51.560841,"lon":0.14983},{"name":"The Angel and Harp in Churchend","lat":51.879928,"lon":0.36506},{"name":"The Litten Tree in Leighton Buzzard","lat":51.916042,"lon":-0.660272},{"name":"The Black Lion in High Roding","lat":51.828856,"lon":0.32321},{"name":"The Boars Head in Great Dunmow","lat":51.871509,"lon":0.363771},{"name":"The Butchers Arms in North End","lat":51.832879,"lon":0.412773},{"name":"The Chequers in Great Dunmow","lat":51.872715,"lon":0.360424},{"name":"The Chequers in Felsted","lat":51.857294,"lon":0.436388},{"name":"The Kicking Dickey in Great Dunmow","lat":51.864242,"lon":0.369234},{"name":"The Prince Of Wales in Broxted","lat":51.90962,"lon":0.285183},{"name":"The Three Horseshoes in Great Dunmow","lat":51.916776,"lon":0.332459},{"name":"The Maypole in Thaxted","lat":51.952435,"lon":0.345865},{"name":"The Stag in Little Easton","lat":51.891649,"lon":0.336113},{"name":"The Wheatsheaf in Leighton Buzzard","lat":51.918844,"lon":-0.6605},{"name":"White Hart in Stebbing","lat":51.892752,"lon":0.412448},{"name":"The Black Lion in Epping","lat":51.700836,"lon":0.113506},{"name":"Duke Of Wellington in Epping","lat":51.696515,"lon":0.108269},{"name":"The Old Crown in Bath","lat":51.379914,"lon":-2.393148},{"name":"George and Dragon in Epping","lat":51.699128,"lon":0.112008},{"name":"Garnon Bushes in Coopersale","lat":51.706029,"lon":0.13517},{"name":"Billie Jeans in Epping","lat":51.696435,"lon":0.107696},{"name":"The Kings Head in North Weald","lat":51.714187,"lon":0.165521},{"name":"The Moletrap in Theydon Mount","lat":51.690642,"lon":0.169231},{"name":"The Queen Victoria in Theydon Bois","lat":51.672157,"lon":0.09977},{"name":"The Anchor in Tilsworth","lat":51.909771,"lon":-0.578022},{"name":"The Theydon Oak in Epping","lat":51.695212,"lon":0.13113},{"name":"The Essex Skipper in Frinton-On-Sea","lat":51.843851,"lon":1.248106},{"name":"The Red Lion in Kirby-Le-Soken","lat":51.853855,"lon":1.220697},{"name":"The Ashwell Arms in Leighton Buzzard","lat":51.921627,"lon":-0.661196},{"name":"Bricklayers Arms in Grays","lat":51.475646,"lon":0.330533},{"name":"The Bull in Grays","lat":51.476959,"lon":0.343843},{"name":"The Queens in Grays","lat":51.477881,"lon":0.323603},{"name":"Dog and Partridge in Orsett","lat":51.529553,"lon":0.376828},{"name":"Dog and Partridge in North Stifford","lat":51.498137,"lon":0.305296},{"name":"Axe and Compass in Heath and Reach","lat":51.941761,"lon":-0.655098},{"name":"The Foxhound in Orsett","lat":51.512216,"lon":0.367392},{"name":"The Traitors Gate in Grays","lat":51.476201,"lon":0.337384},{"name":"The Kings Arms in Orsett","lat":51.506041,"lon":0.354679},{"name":"The Oak in Grays","lat":51.48881,"lon":0.338953},{"name":"The Old Shant in Grays","lat":51.476796,"lon":0.29663},{"name":"The Sandmartin in Grays","lat":51.48984,"lon":0.313196},{"name":"The Ship in Grays","lat":51.47617,"lon":0.338618},{"name":"Theobald Arms in Grays","lat":51.473698,"lon":0.322616},{"name":"The Treacle Mine in Grays","lat":51.494276,"lon":0.318474},{"name":"The Wharf in Grays","lat":51.474866,"lon":0.314722},{"name":"Whitmore Arms in Orsett","lat":51.512616,"lon":0.369849},{"name":"The Griffin in Halstead","lat":51.942514,"lon":0.640894},{"name":"Kings Head in Ridgewell","lat":52.040456,"lon":0.531722},{"name":"The Kings Head in Pebmarsh","lat":51.969093,"lon":0.695471},{"name":"The Boot in Soulbury","lat":51.933632,"lon":-0.717482},{"name":"The Locomotive in Halstead","lat":51.944159,"lon":0.632829},{"name":"The Pheasant in Gestingthorpe","lat":52.011197,"lon":0.639648},{"name":"The Plough in Birdbrook","lat":52.042243,"lon":0.487956},{"name":"Royal Oak in Halstead","lat":51.943878,"lon":0.635445},{"name":"The Buckingham Arms in Linslade","lat":51.917392,"lon":-0.674779},{"name":"The White Hart in Halstead","lat":51.944654,"lon":0.638124},{"name":"The Three Pigeons in Halstead","lat":51.93993,"lon":0.628593},{"name":"The Wheatsheaf in Castle Hedingham","lat":51.989296,"lon":0.598505},{"name":"The White Lion in Sible Hedingham","lat":51.977027,"lon":0.585548},{"name":"The Chequers in Harlow","lat":51.783589,"lon":0.132378},{"name":"The Clay Pipe in Leighton Buzzard","lat":51.923228,"lon":-0.642378},{"name":"The Cock in Great Parndon","lat":51.758271,"lon":0.08083},{"name":"Drinker Moth in Harlow","lat":51.746746,"lon":0.087776},{"name":"The Dusty Miller in Harlow","lat":51.785311,"lon":0.095615},{"name":"Essex Skipper in Harlow","lat":51.775702,"lon":0.114945},{"name":"Garden Tiger in Harlow","lat":51.770968,"lon":0.105142},{"name":"The Greyhound in Harlow","lat":51.776919,"lon":0.102201},{"name":"The Hare in Harlow","lat":51.768889,"lon":0.085058},{"name":"The Herald in Sumners","lat":51.748808,"lon":0.07234},{"name":"Marquis Of Granby in Harlow","lat":51.783336,"lon":0.132075},{"name":"The Phoenix in Harlow","lat":51.762512,"lon":0.114285},{"name":"Plume Of Feathers in Gilston","lat":51.789758,"lon":0.098598},{"name":"Poplar Kitten in Harlow","lat":51.760167,"lon":0.107161},{"name":"The Potters Arms in Harlow","lat":51.76604,"lon":0.132552},{"name":"The Purple Emperor in Mark Hall","lat":51.771318,"lon":0.119683},{"name":"Rainbow and Dove in Hastingwood","lat":51.74453,"lon":0.144359},{"name":"The Red Lion in Harlow","lat":51.75829,"lon":0.132854},{"name":"The Shark in Harlow","lat":51.773832,"lon":0.080619},{"name":"The White Admiral in Harlow","lat":51.779768,"lon":0.119847},{"name":"The White Hart in Roydon","lat":51.771199,"lon":0.040233},{"name":"The Willow in Harlow","lat":51.775175,"lon":0.09161},{"name":"The British Flag in Harwich","lat":51.946323,"lon":1.286516},{"name":"The Captain Fryatt in Parkeston","lat":51.942909,"lon":1.255966},{"name":"Kings Arms in Dovercourt","lat":51.937836,"lon":1.282396},{"name":"The Royal Oak in Dovercourt","lat":51.935605,"lon":1.27511},{"name":"The Royal in Dovercourt","lat":51.934624,"lon":1.26446},{"name":"The Stingray in Harwich","lat":51.946155,"lon":1.288003},{"name":"The Trafalgar in Dovercourt","lat":51.932347,"lon":1.252174},{"name":"The Anchor in Hullbridge","lat":51.627726,"lon":0.614357},{"name":"The Fatling and Firkin in Hornchurch","lat":51.562662,"lon":0.21962},{"name":"George II in Hornchurch","lat":51.562621,"lon":0.217021},{"name":"Hare and Hounds in Ledburn","lat":51.889671,"lon":-0.686554},{"name":"Good Intent in Hornchurch","lat":51.540549,"lon":0.202882},{"name":"The Harrow in Hornchurch","lat":51.564749,"lon":0.204802},{"name":"The Ardleigh in Hornchurch","lat":51.584411,"lon":0.220853},{"name":"The Hare in Linslade","lat":51.913832,"lon":-0.681324},{"name":"The Bridge House in Goodmayes","lat":51.565173,"lon":0.11012},{"name":"The Cauliflower in Ilford","lat":51.5629,"lon":0.090767},{"name":"The General in Ilford","lat":51.55977,"lon":0.07656},{"name":"The Maypole Old in Ilford","lat":51.601181,"lon":0.084152},{"name":"The Prince Of Wales in Ilford","lat":51.559076,"lon":0.085862},{"name":"The Valentine in Gants Hill","lat":51.575607,"lon":0.06776},{"name":"The Bakers Arms in Stock","lat":51.664942,"lon":0.448036},{"name":"The Bell in Ingatestone","lat":51.670106,"lon":0.384484},{"name":"The Black Bull in Margaretting","lat":51.689658,"lon":0.417851},{"name":"The Queens Head in Wing","lat":51.894998,"lon":-0.719403},{"name":"The Hoop in Stock","lat":51.664442,"lon":0.445605},{"name":"The Old Kings Head in Stock","lat":51.653013,"lon":0.43604},{"name":"The Red Lion in Margaretting","lat":51.683271,"lon":0.402609},{"name":"The Broadway in Leigh-On-Sea","lat":51.541292,"lon":0.655436},{"name":"The Queens Head in Tebworth","lat":51.930622,"lon":-0.560148},{"name":"The Harry in Leigh-On-Sea","lat":51.548629,"lon":0.641178},{"name":"The Ship in Leigh-On-Sea","lat":51.540182,"lon":0.651841},{"name":"Woodcutters Arms in Leigh-On-Sea","lat":51.55897,"lon":0.64765},{"name":"Carpenters Arms in Loughton","lat":51.648036,"lon":0.052549},{"name":"The Clydesdale in Debden","lat":51.65248,"lon":0.081431},{"name":"The Duke Of Wellington in Loughton","lat":51.667484,"lon":0.031358},{"name":"The Foresters Arms in Loughton","lat":51.659166,"lon":0.062592},{"name":"Gardeners Arms in Loughton","lat":51.654467,"lon":0.059974},{"name":"The Hollybush in Loughton","lat":51.64574,"lon":0.053223},{"name":"Kings Oak in High Beech","lat":51.664284,"lon":0.039862},{"name":"The Owl in Loughton","lat":51.654383,"lon":0.020363},{"name":"Plume Of Feathers in Loughton","lat":51.654525,"lon":0.065404},{"name":"Robin Hood in Loughton","lat":51.656064,"lon":0.040254},{"name":"Royal Oak in Loughton","lat":51.649076,"lon":0.051019},{"name":"The Bell in Woodham Walter","lat":51.731241,"lon":0.617294},{"name":"Borough Arms in Maldon","lat":51.726401,"lon":0.682639},{"name":"The Compasses in Great Totham","lat":51.785373,"lon":0.706904},{"name":"The Royal Oak in Maldon","lat":51.71102,"lon":0.674881},{"name":"The Hurdlemakers Arms in Woodham Mortimer","lat":51.710228,"lon":0.623862},{"name":"The Jolly Sailor in Heybridge Basin","lat":51.729572,"lon":0.709668},{"name":"The Rose and Crown in Ivinghoe","lat":51.837505,"lon":-0.629726},{"name":"The Jolly Sailor in Maldon","lat":51.728955,"lon":0.68789},{"name":"The Kings Head in Tollesbury","lat":51.758344,"lon":0.832536},{"name":"Maltsters Arms in Heybridge","lat":51.739238,"lon":0.688007},{"name":"The Old Ship in Heybridge Basin","lat":51.729176,"lon":0.709348},{"name":"Prince Of Wales in Great Totham","lat":51.770501,"lon":0.68482},{"name":"The Queen Victoria in Woodham Walter","lat":51.732663,"lon":0.617959},{"name":"The Queen Victoria in Maldon","lat":51.728214,"lon":0.669408},{"name":"The Queens Head in Maldon","lat":51.729437,"lon":0.687932},{"name":"The Warwick Arms in Maldon","lat":51.72954,"lon":0.684735},{"name":"The Round Bush in Mundon","lat":51.685235,"lon":0.686323},{"name":"The Ship and Anchor in Maldon","lat":51.729141,"lon":0.684971},{"name":"The Swan in Little Totham","lat":51.773404,"lon":0.737921},{"name":"The White Horse in Maldon","lat":51.73148,"lon":0.676195},{"name":"The Brantham Bull in Brantham","lat":51.968207,"lon":1.088305},{"name":"The Crown in Cattawade","lat":51.956624,"lon":1.057957},{"name":"The Haywain in Little Bromley","lat":51.911152,"lon":1.052713},{"name":"The Red Lion in Manningtree","lat":51.944649,"lon":1.063982},{"name":"The Skinners in Manningtree","lat":51.945455,"lon":1.061345},{"name":"The Strangers Home in Bradfield","lat":51.933879,"lon":1.1172},{"name":"The Mistley Thorn in Mistley","lat":51.944576,"lon":1.079171},{"name":"The Waggon At Wix in Wix","lat":51.912204,"lon":1.142771},{"name":"The Black Bull in Fyfield","lat":51.745299,"lon":0.277935},{"name":"The Foresters Arms in High Ongar","lat":51.710834,"lon":0.266055},{"name":"The Nags Head in Moreton","lat":51.740677,"lon":0.220109},{"name":"The Queens Head in Fyfield","lat":51.739041,"lon":0.272963},{"name":"The Royal Oak in Ongar","lat":51.703086,"lon":0.244739},{"name":"The Stag in Ongar","lat":51.696461,"lon":0.246677},{"name":"The Two Brewers in Ongar","lat":51.700438,"lon":0.242536},{"name":"Woodman in Little End","lat":51.676254,"lon":0.213503},{"name":"The Albion in Rainham","lat":51.522886,"lon":0.191837},{"name":"Half Moon in Rayleigh","lat":51.587643,"lon":0.608067},{"name":"Travellers Joy in Rayleigh","lat":51.591909,"lon":0.602831},{"name":"Spread Eagle in Rayleigh","lat":51.585789,"lon":0.605213},{"name":"The Golden Lion in Rochford","lat":51.583026,"lon":0.706852},{"name":"The Horse and Groom in Rochford","lat":51.579616,"lon":0.707437},{"name":"The Marlborough Head in Rochford","lat":51.582139,"lon":0.703941},{"name":"The Milestone in Rochford","lat":51.582713,"lon":0.703643},{"name":"The Grey Goose in Rochford","lat":51.582669,"lon":0.707995},{"name":"Plough and Sail in Paglesham","lat":51.595722,"lon":0.804214},{"name":"The Punch Bowl in Paglesham","lat":51.604161,"lon":0.778043},{"name":"Rose and Crown in Rochford","lat":51.583909,"lon":0.706965},{"name":"The Royal Oak in Stambridge","lat":51.59286,"lon":0.740763},{"name":"The Victory in Rochford","lat":51.605454,"lon":0.69211},{"name":"The Alderman in Romford","lat":51.605665,"lon":0.220158},{"name":"The Archers in Gidea Park","lat":51.586513,"lon":0.200904},{"name":"The Bell and Gate in Romford","lat":51.596054,"lon":0.164408},{"name":"The Bull in Romford","lat":51.578576,"lon":0.180909},{"name":"Coopers Arms in Chadwell Heath","lat":51.570721,"lon":0.130805},{"name":"The Three Horseshoes in Cheddington","lat":51.848358,"lon":-0.665198},{"name":"The Golden Lion in Romford","lat":51.578523,"lon":0.179836},{"name":"The Harrow in Romford","lat":51.588029,"lon":0.134346},{"name":"The Maltsters Arms in Abridge","lat":51.649983,"lon":0.115954},{"name":"The Unicorn in Cublington","lat":51.891968,"lon":-0.781369},{"name":"Mawney Arms in Romford","lat":51.579045,"lon":0.170737},{"name":"The Morris Dancer in Romford","lat":51.599452,"lon":0.230093},{"name":"The Havering Oak in Romford","lat":51.570601,"lon":0.186445},{"name":"The Orange Tree in Havering-Atte-Bower","lat":51.614148,"lon":0.181195},{"name":"The Aspen Tree in Romford","lat":51.600266,"lon":0.177283},{"name":"Prince Albert in Romford","lat":51.57384,"lon":0.176941},{"name":"The White Horse in Linslade","lat":51.916002,"lon":-0.671818},{"name":"The Rabbits in Stapleford Abbotts","lat":51.648356,"lon":0.168914},{"name":"The Royal Oak in Stapleford Abbotts","lat":51.627634,"lon":0.18387},{"name":"Saxon King in Romford","lat":51.603572,"lon":0.237097},{"name":"The Shepherd and Dog in Romford","lat":51.591479,"lon":0.244949},{"name":"The Sun in Romford","lat":51.575027,"lon":0.175467},{"name":"The Harefield Manor in Romford","lat":51.582737,"lon":0.189823},{"name":"The Wheatsheaf in Romford","lat":51.571874,"lon":0.187829},{"name":"William The Conqueror in Romford","lat":51.605532,"lon":0.232398},{"name":"The Axe in Saffron Walden","lat":52.025168,"lon":0.249524},{"name":"Duke Of York in Saffron Walden","lat":52.020108,"lon":0.239956},{"name":"The Eight Bells in Saffron Walden","lat":52.025242,"lon":0.236714},{"name":"The Fox and Hounds in Clavering","lat":51.966777,"lon":0.147617},{"name":"The Gate in Saffron Walden","lat":52.019503,"lon":0.250945},{"name":"The Ickleton Lion in Ickleton","lat":52.070918,"lon":0.174573},{"name":"The Kings Arms in Saffron Walden","lat":52.024164,"lon":0.241012},{"name":"The Old English Gentleman in Saffron Walden","lat":52.022302,"lon":0.240647},{"name":"The Plough in Debden","lat":51.976928,"lon":0.265672},{"name":"The Plough in Great Chesterford","lat":52.063785,"lon":0.202764},{"name":"The Red Lion in Hinxton","lat":52.084825,"lon":0.181584},{"name":"White Hart in Wimbish","lat":51.989123,"lon":0.303756},{"name":"The Archer in South Ockendon","lat":51.505314,"lon":0.273076},{"name":"The Royal Oak in South Ockendon","lat":51.523314,"lon":0.298178},{"name":"The Ship in Aveley","lat":51.49843,"lon":0.257936},{"name":"Woodlands Edge in South Ockendon","lat":51.503682,"lon":0.284379},{"name":"The Bell in Southend-On-Sea","lat":51.558716,"lon":0.696043},{"name":"The Old Garrison in Shoeburyness","lat":51.529825,"lon":0.787529},{"name":"The Castle in Southend-On-Sea","lat":51.530304,"lon":0.733327},{"name":"The Cornucopia in Southend-On-Sea","lat":51.533144,"lon":0.720948},{"name":"The Falcon in Southend-On-Sea","lat":51.533029,"lon":0.721592},{"name":"The Alex in Southend-On-Sea","lat":51.535031,"lon":0.710978},{"name":"The Foresters Arms in Southend-On-Sea","lat":51.53317,"lon":0.723423},{"name":"Bird and Bush in Luton","lat":51.907791,"lon":-0.412177},{"name":"The Guildford in Southend-On-Sea","lat":51.542694,"lon":0.71826},{"name":"Loyal Toast in Southend-On-Sea","lat":51.570881,"lon":0.668937},{"name":"Biscot Mill in Luton","lat":51.895996,"lon":-0.43323},{"name":"The Papillon in Southend-On-Sea","lat":51.533259,"lon":0.718182},{"name":"The Park in Southend-On-Sea","lat":51.540126,"lon":0.704866},{"name":"The Red Lion in Great Wakering","lat":51.552732,"lon":0.805304},{"name":"Shore House in Shoeburyness","lat":51.523964,"lon":0.777282},{"name":"Spread Eagle in Southend-On-Sea","lat":51.548708,"lon":0.704409},{"name":"Sutton Arms in Southend-On-Sea","lat":51.540282,"lon":0.714827},{"name":"The Town House in Southend-On-Sea","lat":51.539169,"lon":0.710074},{"name":"The Old Walnut Tree in Southend-On-Sea","lat":51.541587,"lon":0.738626},{"name":"The Fox and Hounds in Tillingham","lat":51.697153,"lon":0.883037},{"name":"The Kings Head in Southminster","lat":51.662407,"lon":0.829923},{"name":"The Queens Head in Southminster","lat":51.662954,"lon":0.819863},{"name":"The Star in Steeple","lat":51.693059,"lon":0.802878},{"name":"The Station Arms in Southminster","lat":51.661821,"lon":0.833314},{"name":"Sun and Anchor in Steeple","lat":51.692183,"lon":0.800031},{"name":"George and Dragon in Linford","lat":51.4867,"lon":0.411561},{"name":"The White Lion in Fobbing","lat":51.527732,"lon":0.472729},{"name":"The Cock in Stansted Mountfitchet","lat":51.903035,"lon":0.192487},{"name":"Dog and Duck in Stansted Mountfitchet","lat":51.903982,"lon":0.201128},{"name":"The Chequers in Caddington","lat":51.866617,"lon":-0.455862},{"name":"The Rose and Crown in Stansted Mountfitchet","lat":51.908124,"lon":0.188347},{"name":"The Chequers in Luton","lat":51.875463,"lon":-0.40896},{"name":"The Mariners Arms in Berkeley","lat":51.691423,"lon":-2.462267},{"name":"Adam and Eve in Cheltenham","lat":51.906267,"lon":-2.084728},{"name":"The Chequers in Streatley","lat":51.942981,"lon":-0.441752},{"name":"Beaufort Arms in Cheltenham","lat":51.891219,"lon":-2.061159},{"name":"The Beehive in Cheltenham","lat":51.892993,"lon":-2.078658},{"name":"The Beehive in Prestbury","lat":51.90993,"lon":-2.046153},{"name":"The Brown Jug in Cheltenham","lat":51.887641,"lon":-2.080145},{"name":"The Cheese Rollers in Shurdington","lat":51.862907,"lon":-2.119127},{"name":"Clock Tower in Charlton Kings","lat":51.872111,"lon":-2.053275},{"name":"Coach and Horses in Bourton-on-the-Water","lat":51.894181,"lon":-1.758008},{"name":"Exmouth Arms in Cheltenham","lat":51.88955,"lon":-2.07898},{"name":"The Gloucester Old Spot in Elmstone Hardwicke","lat":51.933127,"lon":-2.14916},{"name":"Halfway House in Kineton","lat":51.939282,"lon":-1.859199},{"name":"Hare and Hounds in Chedworth","lat":51.783561,"lon":-1.902603},{"name":"Harvest Home in Greet","lat":51.967695,"lon":-1.96513},{"name":"The Ridge in Cheltenham","lat":51.916511,"lon":-2.086634},{"name":"The Hewlett Arms in Cheltenham","lat":51.900784,"lon":-2.052871},{"name":"House In The Tree in Staverton","lat":51.913021,"lon":-2.14324},{"name":"The Jolly Brewmaster in Cheltenham","lat":51.89025,"lon":-2.082901},{"name":"The Kings Arms in Cheltenham","lat":51.901388,"lon":-2.092273},{"name":"The Kings Head in Bishops Cleeve","lat":51.947439,"lon":-2.062468},{"name":"The Kings Head in Withington","lat":51.836228,"lon":-1.949343},{"name":"National Hunt in Benhall","lat":51.89396,"lon":-2.118408},{"name":"The Norwood in Cheltenham","lat":51.88706,"lon":-2.080171},{"name":"The Tivoli in Cheltenham","lat":51.892205,"lon":-2.086481},{"name":"The Plaisterers Arms in Winchcombe","lat":51.95265,"lon":-1.965293},{"name":"The Promenade Vaults in Cheltenham","lat":51.899088,"lon":-2.078131},{"name":"The Maple Leaf in Cheltenham","lat":51.899058,"lon":-2.066159},{"name":"The Enterprise in Luton","lat":51.875407,"lon":-0.418812},{"name":"Old Restoration in Cheltenham","lat":51.897852,"lon":-2.070789},{"name":"The Royal in Charlton Kings","lat":51.882081,"lon":-2.05333},{"name":"Royal Oak in Bishops Cleeve","lat":51.947095,"lon":-2.0597},{"name":"The Royal Oak in Gretton","lat":51.972975,"lon":-1.980617},{"name":"The Royal Oak in Andoversford","lat":51.874581,"lon":-1.966811},{"name":"The Royal Oak in Prestbury","lat":51.914838,"lon":-2.049255},{"name":"Royal Union in Cheltenham","lat":51.891555,"lon":-2.088987},{"name":"Russell Arms in Cheltenham","lat":51.8939,"lon":-2.063735},{"name":"The Shutters in Gotherington","lat":51.965655,"lon":-2.060764},{"name":"Somerset Arms in Cheltenham","lat":51.885352,"lon":-2.08296},{"name":"St Georges Vaults in Cheltenham","lat":51.902244,"lon":-2.077904},{"name":"The Quaich in Cheltenham","lat":51.901984,"lon":-2.080214},{"name":"Sudeley Arms in Cheltenham","lat":51.903985,"lon":-2.069273},{"name":"The Suffolk Arms in Cheltenham","lat":51.891418,"lon":-2.079135},{"name":"Talbot in Stow On The Wold","lat":51.929749,"lon":-1.722688},{"name":"The Porch House in Stow On The Wold","lat":51.929249,"lon":-1.72069},{"name":"The Four Horseshoes in Luton","lat":51.876499,"lon":-0.410101},{"name":"White Hart in Stow On The Wold","lat":51.930569,"lon":-1.7226},{"name":"The Fox in Luton","lat":51.889044,"lon":-0.343521},{"name":"The Butchers Arms in Mickleton","lat":52.090629,"lon":-1.769498},{"name":"The Kings Arms in Mickleton","lat":52.089223,"lon":-1.767886},{"name":"The Belfry in Littledean","lat":51.819664,"lon":-2.481772},{"name":"The Frog and Rhubarb in Slip End","lat":51.855268,"lon":-0.432554},{"name":"The Golden Lion in Cinderford","lat":51.825233,"lon":-2.499722},{"name":"The Gardeners Call in Luton","lat":51.886291,"lon":-0.409187},{"name":"The Porter in Bath","lat":51.384822,"lon":-2.362816},{"name":"The Black Horse in Cirencester","lat":51.716729,"lon":-1.969159},{"name":"Brewers Arms in Cirencester","lat":51.714559,"lon":-1.966847},{"name":"Catherine Wheel in Bibury","lat":51.758825,"lon":-1.839228},{"name":"The Globe in Luton","lat":51.875182,"lon":-0.413433},{"name":"The Drillman Arms in Cirencester","lat":51.72753,"lon":-1.977847},{"name":"The Eliot Arms in South Cerney","lat":51.673669,"lon":-1.931531},{"name":"Five Mile House in Duntisbourne Abbotts","lat":51.78015,"lon":-2.033043},{"name":"The Greyhound in Siddington","lat":51.693951,"lon":-1.952868},{"name":"The Great Northern in Luton","lat":51.881193,"lon":-0.414439},{"name":"Keepers Arms in Quenington","lat":51.736148,"lon":-1.789352},{"name":"The Marlborough Arms in Cirencester","lat":51.715799,"lon":-1.971423},{"name":"The Masons Arms in Meysey Hampton","lat":51.697109,"lon":-1.828389},{"name":"Oddfellows Arms in Cirencester","lat":51.713467,"lon":-1.962593},{"name":"The Bees Knees in Cirencester","lat":51.709168,"lon":-1.958106},{"name":"Royal Oak in South Cerney","lat":51.670735,"lon":-1.934747},{"name":"Somewhere Else  in Cirencester","lat":51.715933,"lon":-1.971292},{"name":"The Twelve Bells in Cirencester","lat":51.714366,"lon":-1.965691},{"name":"Waggon and Horses in Cirencester","lat":51.716365,"lon":-1.961882},{"name":"Butchers Arms in Clearwell","lat":51.769552,"lon":-2.620711},{"name":"The Feathers in Coleford","lat":51.793595,"lon":-2.616594},{"name":"The Hansom Cab in Luton","lat":51.899088,"lon":-0.390422},{"name":"Hearts Of Oak in Drybrook","lat":51.854798,"lon":-2.517441},{"name":"The Rose In Hand in Drybrook","lat":51.855476,"lon":-2.529987},{"name":"Berkeley Arms in Dursley","lat":51.701702,"lon":-2.364631},{"name":"Fox and Hounds in Coaley","lat":51.71187,"lon":-2.330834},{"name":"The Kingshill in Dursley","lat":51.688806,"lon":-2.361907},{"name":"The Pepper Pot in Dursley","lat":51.66129,"lon":-2.417606},{"name":"Beauchamp Arms in Dymock","lat":51.97811,"lon":-2.437089},{"name":"Marlborough Arms in Fairford","lat":51.706694,"lon":-1.78765},{"name":"Air Balloon in Birdlip","lat":51.843354,"lon":-2.096706},{"name":"Baker Street in Gloucester","lat":51.859027,"lon":-2.250781},{"name":"The Brunswick in Gloucester","lat":51.861219,"lon":-2.245593},{"name":"The Jolly Topers in Luton","lat":51.892351,"lon":-0.401494},{"name":"The Dick Whittington in Gloucester","lat":51.867145,"lon":-2.249446},{"name":"The Double Gloucester in Gloucester","lat":51.871667,"lon":-2.216643},{"name":"The Fox and Elm in Gloucester","lat":51.831653,"lon":-2.244759},{"name":"King William IV in Cockernhoe","lat":51.902407,"lon":-0.367215},{"name":"The Treddy in Gloucester","lat":51.854986,"lon":-2.235784},{"name":"Great Western in Gloucester","lat":51.8611,"lon":-2.228465},{"name":"The Butchers Arms in Eldersfield","lat":51.971095,"lon":-2.27252},{"name":"The Greyhound in Gloucester","lat":51.878571,"lon":-2.204743},{"name":"Hare and Hounds in Gloucester","lat":51.888093,"lon":-2.186772},{"name":"The King Edward VII in Gloucester","lat":51.875507,"lon":-2.20924},{"name":"The Abbey in Gloucester","lat":51.866583,"lon":-2.244263},{"name":"The Kings Head in Gloucester","lat":51.829925,"lon":-2.205271},{"name":"The Linden Tree in Gloucester","lat":51.854792,"lon":-2.252868},{"name":"Northend Vaults in Gloucester","lat":51.866662,"lon":-2.242742},{"name":"The Old Crown in Gloucester","lat":51.866899,"lon":-2.249343},{"name":"One Eyed Jacks in Gloucester","lat":51.860677,"lon":-2.23717},{"name":"Queens Arms in Ashleworth","lat":51.928652,"lon":-2.274816},{"name":"The Lilley Arms in Lilley","lat":51.92566,"lon":-0.375632},{"name":"The Queens Head in Gloucester","lat":51.872559,"lon":-2.24109},{"name":"The Red Lion in Norton","lat":51.930724,"lon":-2.222442},{"name":"The Red Lion in Arlingham","lat":51.79637,"lon":-2.42433},{"name":"The Red Lion in Huntley","lat":51.872301,"lon":-2.405396},{"name":"The Tall Ship in Gloucester","lat":51.861714,"lon":-2.250282},{"name":"The Prince Of Wales in Peasedown St. John","lat":51.324863,"lon":-2.416403},{"name":"Tudor Arms in Slimbridge","lat":51.735321,"lon":-2.395191},{"name":"The Oakwood in Twigworth","lat":51.894496,"lon":-2.2305},{"name":"The Three Horseshoes in Frampton On Severn","lat":51.766716,"lon":-2.368326},{"name":"Three Oaks in Gloucester","lat":51.842111,"lon":-2.227408},{"name":"The Turmut Hoer in Gloucester","lat":51.846078,"lon":-2.198767},{"name":"The Victoria in Gloucester","lat":51.849481,"lon":-2.169336},{"name":"Wagon and Horses in Gloucester","lat":51.855542,"lon":-2.187641},{"name":"Teagues (The White Hart) in Gloucester","lat":51.872009,"lon":-2.241174},{"name":"Whitesmiths Arms in Gloucester","lat":51.861565,"lon":-2.250019},{"name":"The York in Gloucester","lat":51.86829,"lon":-2.233722},{"name":"Riverside Pub in Lechlade","lat":51.69291,"lon":-1.692999},{"name":"The Swan in Lechlade","lat":51.69478,"lon":-1.691549},{"name":"The Farmers Boy in Longhope","lat":51.883537,"lon":-2.466344},{"name":"The Masons Arms in Lydbrook","lat":51.842964,"lon":-2.57273},{"name":"The Greyhound in Lydney","lat":51.727478,"lon":-2.52712},{"name":"The Mother Red Cap in Luton","lat":51.874133,"lon":-0.414104},{"name":"The Rising Sun in Woolaston","lat":51.70738,"lon":-2.595112},{"name":"The Moulders in Luton","lat":51.875749,"lon":-0.40939},{"name":"The Great Western Arms in Blockley","lat":52.014211,"lon":-1.758643},{"name":"The Exchange in Luton","lat":51.878458,"lon":-0.417115},{"name":"The Red Lion in Newent","lat":51.930326,"lon":-2.40514},{"name":"The Kings Head in Kings Stanley","lat":51.729872,"lon":-2.273907},{"name":"The Hog in Horsley","lat":51.680877,"lon":-2.234762},{"name":"The Britannia  in Nailsworth","lat":51.693716,"lon":-2.221021},{"name":"The British Oak  in Stroud","lat":51.737769,"lon":-2.207297},{"name":"The Clothiers Arms in Stroud","lat":51.742871,"lon":-2.226394},{"name":"Crown and Sceptre in Stroud","lat":51.741566,"lon":-2.203541},{"name":"The Duke Of York in Stroud","lat":51.744557,"lon":-2.214182},{"name":"The Painters Arms in Luton","lat":51.885226,"lon":-0.41122},{"name":"The Imperial in Stroud","lat":51.744811,"lon":-2.21886},{"name":"New Red Lion in Chalford","lat":51.721548,"lon":-2.14972},{"name":"The Old Crown in Stroud","lat":51.749353,"lon":-2.239534},{"name":"The Queen Vic in Stroud","lat":51.746651,"lon":-2.21706},{"name":"The Royal Oak in North Woodchester","lat":51.724017,"lon":-2.234553},{"name":"The Stirrup Cup in Bisley","lat":51.753311,"lon":-2.139565},{"name":"The Ormond in Tetbury","lat":51.63753,"lon":-2.16031},{"name":"The Royal Oak in Tetbury","lat":51.638958,"lon":-2.155551},{"name":"The Albion in Tewkesbury","lat":51.995674,"lon":-2.154558},{"name":"The Anchor in Tewkesbury","lat":51.99551,"lon":-2.156483},{"name":"Berkeley Arms in Tewkesbury","lat":51.99216,"lon":-2.15775},{"name":"The Crown in Luton","lat":51.878088,"lon":-0.414129},{"name":"Fox and Hounds in Bredon","lat":52.030928,"lon":-2.115166},{"name":"The Gardeners Arms in Alderton","lat":51.998764,"lon":-2.00245},{"name":"Gupshill Manor in Tewkesbury","lat":51.981329,"lon":-2.156107},{"name":"Nottingham Arms in Tewkesbury","lat":51.993826,"lon":-2.156911},{"name":"The Royal Oak in Bredon","lat":52.030562,"lon":-2.111812},{"name":"The White Bear in Tewkesbury","lat":51.997932,"lon":-2.153782},{"name":"The Red Lion in Upper Sundon","lat":51.938775,"lon":-0.480501},{"name":"The Red Lion in Westbury-On-Severn","lat":51.82397,"lon":-2.412266},{"name":"Pulteney Arms in Bath","lat":51.385856,"lon":-2.352705},{"name":"The Abbey Lee in Oldham","lat":53.532906,"lon":-2.093913},{"name":"The Ace in Oldham","lat":53.5207,"lon":-2.101564},{"name":"The Ashton Arms in Oldham","lat":53.540961,"lon":-2.111467},{"name":"The Black Horse in Oldham","lat":53.552712,"lon":-2.085471},{"name":"Blue Bell in Shaw","lat":53.577306,"lon":-2.093356},{"name":"Boltmakers Rest in Oldham","lat":53.543608,"lon":-2.107844},{"name":"The Bridgewater in Oldham","lat":53.526098,"lon":-2.136272},{"name":"The Castle in Luton","lat":51.877722,"lon":-0.414497},{"name":"The Bulls Head in Delph","lat":53.567129,"lon":-2.0232},{"name":"The Carrion Crow in Oldham","lat":53.548662,"lon":-2.083403},{"name":"Carters Arms in Royton","lat":53.561917,"lon":-2.119765},{"name":"Last Orders in Oldham","lat":53.54695,"lon":-2.090671},{"name":"The Church in Oldham","lat":53.524489,"lon":-2.136222},{"name":"Coach and Horses in Oldham","lat":53.54962,"lon":-2.077198},{"name":"Coach and Horses in Shaw","lat":53.577681,"lon":-2.093189},{"name":"Duke Of York in Royton","lat":53.564897,"lon":-2.101542},{"name":"Duke Of York in Shaw","lat":53.575496,"lon":-2.094097},{"name":"The Farmers Boy in Oldham","lat":53.54852,"lon":-2.082955},{"name":"Farrars Arms in Grasscroft","lat":53.537897,"lon":-2.022728},{"name":"The Sportsman in Luton","lat":51.902034,"lon":-0.398195},{"name":"The Front House in Lees","lat":53.537842,"lon":-2.066705},{"name":"The Granby Arms in Uppermill","lat":53.546555,"lon":-2.007225},{"name":"The Star in Chalton","lat":51.927653,"lon":-0.500823},{"name":"Hark To Topper in Oldham","lat":53.54166,"lon":-2.107681},{"name":"The Highfield in Oldham","lat":53.559659,"lon":-2.07854},{"name":"Buck and Union in Oldham","lat":53.539942,"lon":-2.113561},{"name":"The Honeywell Arms in Oldham","lat":53.524615,"lon":-2.110579},{"name":"The Bear in Bath","lat":51.373871,"lon":-2.366772},{"name":"The Horse Shoe in Oldham","lat":53.513392,"lon":-2.107328},{"name":"Horton Arms in Chadderton","lat":53.559956,"lon":-2.145817},{"name":"Minders Arms in Oldham","lat":53.547409,"lon":-2.088507},{"name":"Morning Star in Shaw","lat":53.577902,"lon":-2.084982},{"name":"Old Bulls Head in Shaw","lat":53.584569,"lon":-2.113065},{"name":"Old Grey Mare in Royton","lat":53.555517,"lon":-2.120275},{"name":"Ordnance Arms in Oldham","lat":53.534313,"lon":-2.09753},{"name":"Owd Tatts in Chadderton","lat":53.530177,"lon":-2.145382},{"name":"Peels Arms in Lees","lat":53.543322,"lon":-2.061387},{"name":"The Pineapple in Shaw","lat":53.577919,"lon":-2.093389},{"name":"Printers Arms in Denshaw","lat":53.589591,"lon":-2.04263},{"name":"The Northgate in Oldham","lat":53.56568,"lon":-2.080383},{"name":"The Weavers Answer in Shaw","lat":53.579982,"lon":-2.091557},{"name":"The Wheelwright Arms in Luton","lat":51.880911,"lon":-0.413956},{"name":"The Rose Of Lancaster in Chadderton","lat":53.551873,"lon":-2.167877},{"name":"The Royal George in Greenfield","lat":53.529454,"lon":-2.024788},{"name":"The Royal Oak in Oldham","lat":53.530928,"lon":-2.1341},{"name":"The Shepherds Boy in Oldham","lat":53.549371,"lon":-2.073258},{"name":"The Spinners Arms in Oldham","lat":53.522461,"lon":-2.141449},{"name":"The Springbank in Chadderton","lat":53.543166,"lon":-2.145472},{"name":"The White Hart in Sundon","lat":51.937743,"lon":-0.475845},{"name":"The Crown in Chadderton","lat":53.539569,"lon":-2.139152},{"name":"The Swan in Lees","lat":53.537741,"lon":-2.07096},{"name":"The Temple in Waterhead","lat":53.549345,"lon":-2.070859},{"name":"The Wigmore Arms in Luton","lat":51.888107,"lon":-0.371711},{"name":"The Three Crowns in Oldham","lat":53.541562,"lon":-2.116237},{"name":"The Tommyfield in Oldham","lat":53.543819,"lon":-2.115443},{"name":"Top House in Lees","lat":53.537267,"lon":-2.066885},{"name":"The Blue Belle in Royton","lat":53.569541,"lon":-2.125144},{"name":"Turks Head in Royton","lat":53.582888,"lon":-2.130725},{"name":"The Windmill in Luton","lat":51.875064,"lon":-0.402742},{"name":"Weavers Arms in Oldham","lat":53.547245,"lon":-2.088896},{"name":"The Wellington in Greenfield","lat":53.537476,"lon":-2.010315},{"name":"The Wheatsheaf in Oldham","lat":53.546664,"lon":-2.100193},{"name":"The White Hart in Royton","lat":53.558043,"lon":-2.120328},{"name":"White House in Oldham","lat":53.550249,"lon":-2.111552},{"name":"The Old Pint Pot in Salford","lat":53.483525,"lon":-2.265307},{"name":"Coach and Horses in Salford","lat":53.481915,"lon":-2.304022},{"name":"The Dover in Salford","lat":53.50021,"lon":-2.259042},{"name":"The Hope in Salford","lat":53.489564,"lon":-2.320561},{"name":"The Kings Arms in Salford","lat":53.484042,"lon":-2.255912},{"name":"The Mark Addy in Salford","lat":53.481725,"lon":-2.253785},{"name":"The Bell in Sandy","lat":52.125518,"lon":-0.282018},{"name":"The Palatine in Salford","lat":53.492871,"lon":-2.253699},{"name":"The Priory Arms in Salford","lat":53.49173,"lon":-2.282567},{"name":"The Waggon and Horses in Salford","lat":53.500344,"lon":-2.308276},{"name":"The Weaste in Salford","lat":53.488102,"lon":-2.312259},{"name":"The Crimea in Aldershot","lat":51.248455,"lon":-0.757419},{"name":"The Duke Of York in Aldershot","lat":51.238079,"lon":-0.769388},{"name":"The Garden Gate in Aldershot","lat":51.242944,"lon":-0.762582},{"name":"The George in Aldershot","lat":51.248566,"lon":-0.763871},{"name":"The Greyhound in Ash","lat":51.244474,"lon":-0.728994},{"name":"Queen Victoria in Aldershot","lat":51.248322,"lon":-0.764358},{"name":"The Imperial Standard in Aldershot","lat":51.246867,"lon":-0.777463},{"name":"The Old Ford in North Camp","lat":51.275763,"lon":-0.731177},{"name":"The Crown and Cushion in Great Gransden","lat":52.185845,"lon":-0.146118},{"name":"The Red Lion in Aldershot","lat":51.242405,"lon":-0.750189},{"name":"The Royal Staff in Aldershot","lat":51.246526,"lon":-0.750178},{"name":"The Duncombe Arms in Waresley","lat":52.175284,"lon":-0.173488},{"name":"The White Hart in Aldershot","lat":51.247447,"lon":-0.772468},{"name":"The Ropley in Ropley","lat":51.082901,"lon":-1.10568},{"name":"The Globe on the Lake in Alresford","lat":51.092896,"lon":-1.161069},{"name":"Hinton Arms in Cheriton","lat":51.04674,"lon":-1.160001},{"name":"The Horse and Groom in Alresford","lat":51.090801,"lon":-1.161053},{"name":"Bakers Arms in Alton","lat":51.14943,"lon":-0.975122},{"name":"The Castle Of Comfort in Medstead","lat":51.130782,"lon":-1.066082},{"name":"The George and Dragon in Potton","lat":52.128206,"lon":-0.213031},{"name":"The Cedars in Binsted","lat":51.163716,"lon":-0.895289},{"name":"The George in Alton","lat":51.146176,"lon":-0.978869},{"name":"The Eight Bells in Alton","lat":51.151635,"lon":-0.975769},{"name":"French Horn in Alton","lat":51.140949,"lon":-0.984821},{"name":"The Golden Pot in Shalden","lat":51.184427,"lon":-0.987755},{"name":"The Greyfriar in Chawton","lat":51.133686,"lon":-0.988115},{"name":"The Hop Poles in Alton","lat":51.146181,"lon":-0.978577},{"name":"The Jolly Farmer in Blacknest","lat":51.167668,"lon":-0.859776},{"name":"The Kings Head in Alton","lat":51.148767,"lon":-0.97689},{"name":"The Queens Head in Holybourne","lat":51.159144,"lon":-0.959675},{"name":"The Angel in Privett","lat":51.053453,"lon":-1.041491},{"name":"The Three Horseshoes in East Worldham","lat":51.137173,"lon":-0.933111},{"name":"The Wheatsheaf in Alton","lat":51.14834,"lon":-0.978212},{"name":"The White Hart in Holybourne","lat":51.163137,"lon":-0.948557},{"name":"White Horse in Alton","lat":51.146943,"lon":-0.978094},{"name":"The Angel in Andover","lat":51.209344,"lon":-1.479023},{"name":"Anton Arms in Andover","lat":51.203474,"lon":-1.493804},{"name":"Chestnut Tree in Andover","lat":51.20998,"lon":-1.511885},{"name":"Star and Garter in Andover","lat":51.206513,"lon":-1.478878},{"name":"The Merlin in Andover","lat":51.224393,"lon":-1.480185},{"name":"Foresters Arms in Andover","lat":51.206103,"lon":-1.478412},{"name":"George and Dragon in Hurstbourne Tarrant","lat":51.276486,"lon":-1.45286},{"name":"The Globe in Andover","lat":51.207081,"lon":-1.47965},{"name":"Propaganda Music Canteen in Andover","lat":51.205903,"lon":-1.477616},{"name":"The Lardicake in Andover","lat":51.208594,"lon":-1.47589},{"name":"Queen Charlotte in Andover","lat":51.210083,"lon":-1.457627},{"name":"Queens Head in Ludgershall","lat":51.255811,"lon":-1.622532},{"name":"Lunar Hare in Andover","lat":51.207258,"lon":-1.495552},{"name":"The Shire Horse in Grateley","lat":51.16981,"lon":-1.620486},{"name":"The Swallow in Andover","lat":51.216762,"lon":-1.463032},{"name":"Town Mills in Andover","lat":51.207151,"lon":-1.481324},{"name":"The White Hart in Andover","lat":51.206462,"lon":-1.479943},{"name":"The Queens Head in Sandy","lat":52.129372,"lon":-0.286454},{"name":"The Beacon in Basingstoke","lat":51.256706,"lon":-1.110366},{"name":"The Bolton Arms in Old Basing","lat":51.275183,"lon":-1.044937},{"name":"The Fox in Ellisfield","lat":51.203987,"lon":-1.096709},{"name":"The Golden Lion in Basingstoke","lat":51.250098,"lon":-1.088536},{"name":"The Greyhound in Overton","lat":51.242453,"lon":-1.263028},{"name":"The Rising Sun in Potton","lat":52.131103,"lon":-0.215821},{"name":"The Jolly Farmer in Cliddesden","lat":51.239223,"lon":-1.097074},{"name":"The Kestrel in Basingstoke","lat":51.246592,"lon":-1.138327},{"name":"The King of Wessex in Basingstoke","lat":51.258391,"lon":-1.096733},{"name":"The Lamb in Basingstoke","lat":51.259949,"lon":-1.084221},{"name":"Nine Saxons in Basingstoke","lat":51.276164,"lon":-1.079997},{"name":"Old House at Home in Overton","lat":51.244984,"lon":-1.260967},{"name":"The Popinjay in Basingstoke","lat":51.280896,"lon":-1.090585},{"name":"Purefoy Arms in Preston Candover","lat":51.170558,"lon":-1.133968},{"name":"The Queens Arms in Basingstoke","lat":51.2685,"lon":-1.085522},{"name":"The Red Lion in Overton","lat":51.243707,"lon":-1.266618},{"name":"The Coach House in Potton","lat":52.127955,"lon":-0.213975},{"name":"The Royal Oak in Basingstoke","lat":51.262142,"lon":-1.131415},{"name":"The Skewers in Basingstoke","lat":51.263733,"lon":-1.072721},{"name":"The Soldiers Return in Basingstoke","lat":51.276622,"lon":-1.097293},{"name":"The Swan in Sherborne St. John","lat":51.293326,"lon":-1.10494},{"name":"The Wheatsheaf in Basingstoke","lat":51.262338,"lon":-1.089776},{"name":"The Royal Oak in Potton","lat":52.126638,"lon":-0.217752},{"name":"White Hart in Basingstoke","lat":51.262505,"lon":-1.081187},{"name":"The Winkle in Basingstoke","lat":51.271641,"lon":-1.113761},{"name":"The Holly Bush in Headley","lat":51.119355,"lon":-0.82677},{"name":"The Kings Arms in Sandy","lat":52.130593,"lon":-0.299219},{"name":"The Royal Oak in Hollywater","lat":51.097624,"lon":-0.851656},{"name":"Foresters Arms in Brockenhurst","lat":50.818247,"lon":-1.57249},{"name":"The Thornton Arms in Everton","lat":52.145437,"lon":-0.242911},{"name":"Montagu Arms in Beaulieu","lat":50.818163,"lon":-1.451632},{"name":"Rose and Crown in Brockenhurst","lat":50.820163,"lon":-1.571697},{"name":"The Snakecatcher in Brockenhurst","lat":50.818502,"lon":-1.571922},{"name":"Turfcutters Arms in East Boldre","lat":50.802401,"lon":-1.470233},{"name":"The Wheatsheaf in Gamlingay","lat":52.155318,"lon":-0.188184},{"name":"The Anglers in Eastleigh","lat":50.971436,"lon":-1.337527},{"name":"The Arrow in Eastleigh","lat":50.977739,"lon":-1.359972},{"name":"Brigadier Gerrard in Horton Heath","lat":50.948356,"lon":-1.295248},{"name":"The Chamberlayne Arms in Eastleigh","lat":50.965406,"lon":-1.354317},{"name":"Cleveland Bay in Chandlers Ford","lat":50.978773,"lon":-1.403471},{"name":"The Wheatsheaf in Tempsford","lat":52.163587,"lon":-0.301887},{"name":"The Fishers Pond in Fishers Pond","lat":50.986409,"lon":-1.305527},{"name":"The Fox in Fair Oak","lat":50.974557,"lon":-1.302116},{"name":"The Good Companions in Eastleigh","lat":50.969568,"lon":-1.359016},{"name":"The Admiral in Clifton","lat":52.036323,"lon":-0.303947},{"name":"The Grantham Arms in Eastleigh","lat":50.964322,"lon":-1.358405},{"name":"Hiltonbury Farmhouse in Chandlers Ford","lat":50.996449,"lon":-1.396437},{"name":"The King Rufus in Chandlers Ford","lat":50.992537,"lon":-1.36762},{"name":"The Lapstone in Horton Heath","lat":50.951967,"lon":-1.294596},{"name":"The Leigh in Eastleigh","lat":50.971516,"lon":-1.366566},{"name":"Litten Tree in Eastleigh","lat":50.967694,"lon":-1.353431},{"name":"The Monks Brook in Chandlers Ford","lat":50.986833,"lon":-1.385506},{"name":"The Queens Head in Fishers Pond","lat":50.985531,"lon":-1.304476},{"name":"The Coal Exchange in Emsworth","lat":50.845784,"lon":-0.937271},{"name":"The Kings Arms in Emsworth","lat":50.847875,"lon":-0.941013},{"name":"The Lord Raglan in Emsworth","lat":50.846326,"lon":-0.932636},{"name":"The Stags Head in Westbourne","lat":50.861362,"lon":-0.92603},{"name":"The Black Swan in Shefford","lat":52.038093,"lon":-0.334461},{"name":"The Bird In Hand in Fareham","lat":50.846615,"lon":-1.182564},{"name":"The Castle In The Air in Fareham","lat":50.848233,"lon":-1.179822},{"name":"The Fareham in Fareham","lat":50.854021,"lon":-1.183187},{"name":"The Good Intent in Fareham","lat":50.853278,"lon":-1.183669},{"name":"Cob and Pen in Fareham","lat":50.857312,"lon":-1.171932},{"name":"The Cormorant in Portchester","lat":50.838847,"lon":-1.117579},{"name":"The Crofton in Hill Head","lat":50.819889,"lon":-1.223504},{"name":"The Cuckoo Pint in Fareham","lat":50.828715,"lon":-1.22137},{"name":"Delme Arms in Fareham","lat":50.852652,"lon":-1.165212},{"name":"The Bridge in Shefford","lat":52.038268,"lon":-0.335416},{"name":"The Golden Bowler in Stubbington","lat":50.814818,"lon":-1.214263},{"name":"The Golden Lion in Southwick","lat":50.873189,"lon":-1.111249},{"name":"The Golden Lion in Fareham","lat":50.854288,"lon":-1.173863},{"name":"The Jolly Miller in Fareham","lat":50.860942,"lon":-1.194377},{"name":"The Limes in Fareham","lat":50.853503,"lon":-1.223622},{"name":"The Golden Lion in Clifton","lat":52.037329,"lon":-0.302679},{"name":"The Miners Arms in Funtley","lat":50.870954,"lon":-1.201438},{"name":"The Osborne View in Fareham","lat":50.816627,"lon":-1.233325},{"name":"Queens Head in Titchfield","lat":50.849857,"lon":-1.23494},{"name":"The Red Lion in Southwick","lat":50.874556,"lon":-1.112388},{"name":"The Red Lion in Portchester","lat":50.846638,"lon":-1.12421},{"name":"The Red Lion in Stubbington","lat":50.824991,"lon":-1.213169},{"name":"The Seagull in Portchester","lat":50.847369,"lon":-1.138436},{"name":"The Sir Joseph Paxton in Fareham","lat":50.854727,"lon":-1.25652},{"name":"The Travellers Rest in Newtown","lat":50.906748,"lon":-1.128872},{"name":"Wicor Mill in Portchester","lat":50.843679,"lon":-1.138186},{"name":"The Bat and Ball in Breamore","lat":50.960455,"lon":-1.775306},{"name":"The Black Horse in Shefford","lat":52.059968,"lon":-0.348365},{"name":"The Ram in Bath","lat":51.376627,"lon":-2.354424},{"name":"The Angel and Blue Pig in Lymington","lat":50.75872,"lon":-1.541136},{"name":"The Mayflower in Lymington","lat":50.753698,"lon":-1.529996},{"name":"The White Hart in Campton","lat":52.028917,"lon":-0.353922},{"name":"String Of Horses in Sway","lat":50.786096,"lon":-1.621856},{"name":"The Birch in Woburn","lat":51.99366,"lon":-0.62666},{"name":"The Admiral Drake in Portsmouth","lat":50.813319,"lon":-1.085033},{"name":"Black Horse in Woburn","lat":51.989209,"lon":-0.619031},{"name":"The Blue Anchor in Portsmouth","lat":50.813129,"lon":-1.079969},{"name":"The British Queen in Portsmouth","lat":50.8111,"lon":-1.077947},{"name":"The Churchillian in Widley","lat":50.854014,"lon":-1.06268},{"name":"Clarence Gardens in Portsmouth","lat":50.816855,"lon":-1.079372},{"name":"The Connaught Arms in Portsmouth","lat":50.799249,"lon":-1.073162},{"name":"The Druids Arms in Portsmouth","lat":50.809627,"lon":-1.076987},{"name":"Duke Of Buckingham in Portsmouth","lat":50.791681,"lon":-1.101175},{"name":"Electric Arms in Portsmouth","lat":50.80053,"lon":-1.076995},{"name":"The Farmhouse in Portsmouth","lat":50.814841,"lon":-1.046038},{"name":"The Fleet in Portsmouth","lat":50.797035,"lon":-1.093382},{"name":"The Florist in Portsmouth","lat":50.805758,"lon":-1.076629},{"name":"The Froddington Arms in Portsmouth","lat":50.798023,"lon":-1.077024},{"name":"George and Dragon in Portsmouth","lat":50.810322,"lon":-1.078951},{"name":"The Golden Hind in Portsmouth","lat":50.822503,"lon":-1.064863},{"name":"The Good Companion in Portsmouth","lat":50.799561,"lon":-1.054778},{"name":"The Graham Arms in Portsmouth","lat":50.80763,"lon":-1.071558},{"name":"Drovers Arms in Steppingley","lat":52.00688,"lon":-0.524854},{"name":"The Green Posts in Portsmouth","lat":50.824948,"lon":-1.073759},{"name":"Harvest Home in Portsmouth","lat":50.812799,"lon":-1.064554},{"name":"The Invincible in Portsmouth","lat":50.799143,"lon":-1.106344},{"name":"The Jameson Arms in Portsmouth","lat":50.802897,"lon":-1.079535},{"name":"Flying Fox in Woburn","lat":51.963968,"lon":-0.642271},{"name":"The Jolly Taxpayer in Portsmouth","lat":50.811833,"lon":-1.061103},{"name":"The Lord Chichester in Portsmouth","lat":50.813814,"lon":-1.071297},{"name":"The Manor House in Cosham","lat":50.841663,"lon":-1.056598},{"name":"The Mars in Portsmouth","lat":50.802173,"lon":-1.086854},{"name":"Port Solent Harvester in Portsmouth","lat":50.841293,"lon":-1.096771},{"name":"French Horn in Steppingley","lat":52.007727,"lon":-0.528579},{"name":"The Mother Shipton in Portsmouth","lat":50.819728,"lon":-1.084694},{"name":"Newcome Arms in Portsmouth","lat":50.800211,"lon":-1.07078},{"name":"The Painters Arms in Portsmouth","lat":50.802463,"lon":-1.087045},{"name":"The Pelham Arms in Portsmouth","lat":50.813609,"lon":-1.076316},{"name":"The Pembroke in Portsmouth","lat":50.789822,"lon":-1.10316},{"name":"The Phoenix in Portsmouth","lat":50.824513,"lon":-1.067776},{"name":"The Portsbridge in Cosham","lat":50.839366,"lon":-1.068503},{"name":"The Royal Oak in Woburn","lat":51.986415,"lon":-0.617891},{"name":"The Rose in June in Portsmouth","lat":50.80489,"lon":-1.064729},{"name":"The Royal Standard in Landport","lat":50.800293,"lon":-1.092045},{"name":"The Royal in Portsmouth","lat":50.804631,"lon":-1.086753},{"name":"The Shearer Arms in Portsmouth","lat":50.805351,"lon":-1.072325},{"name":"The Ship and Castle in Portsmouth","lat":50.798828,"lon":-1.106894},{"name":"The Ship Anson in Portsmouth","lat":50.798367,"lon":-1.10655},{"name":"Star and Garter in Portsmouth","lat":50.817242,"lon":-1.064257},{"name":"Still and West in Portsmouth","lat":50.792162,"lon":-1.109452},{"name":"The Swan in Cosham","lat":50.844153,"lon":-1.067641},{"name":"The Tap in Portsmouth","lat":50.813742,"lon":-1.080228},{"name":"The Victory in Portsmouth","lat":50.797418,"lon":-1.105263},{"name":"The Wellington in Portsmouth","lat":50.789327,"lon":-1.106087},{"name":"Winchester Arms in Portsmouth","lat":50.810788,"lon":-1.073413},{"name":"The Crown Tap in Ringwood","lat":50.846397,"lon":-1.790774},{"name":"The Original White Hart in Ringwood","lat":50.846705,"lon":-1.793853},{"name":"The Red Rover in West Wellow","lat":50.97105,"lon":-1.591654},{"name":"The Rockingham Arms in West Wellow","lat":50.958876,"lon":-1.588561},{"name":"The White Horse in Romsey","lat":50.989103,"lon":-1.499359},{"name":"The Alexandra in Southampton","lat":50.912517,"lon":-1.40273},{"name":"The Chapel Arms in Southampton","lat":50.901002,"lon":-1.391379},{"name":"The Endeavour in Southampton","lat":50.89996,"lon":-1.405535},{"name":"The Avenue in Southampton","lat":50.9173,"lon":-1.402151},{"name":"Bald Faced Stag in Southampton","lat":50.918037,"lon":-1.431419},{"name":"The Carpenters Arms in Sunninghill","lat":51.402515,"lon":-0.658626},{"name":"The Bold Forester in Marchwood","lat":50.871283,"lon":-1.45938},{"name":"The Bold Forester in Soberton","lat":50.923699,"lon":-1.140906},{"name":"Juniper Berry in Southampton","lat":50.901024,"lon":-1.406048},{"name":"Bricklayers Arms in Southampton","lat":50.923824,"lon":-1.45483},{"name":"The Brickmakers in Swanmore","lat":50.94502,"lon":-1.182206},{"name":"The Brushmakers Arms in Upham","lat":50.982367,"lon":-1.232189},{"name":"Bucks Head in Meonstoke","lat":50.977253,"lon":-1.129106},{"name":"Dog and Partridge in Sunninghill","lat":51.402192,"lon":-0.659845},{"name":"The Chilworth Arms in Chilworth","lat":50.964407,"lon":-1.417123},{"name":"The Coach and Horses in Cadnam","lat":50.919038,"lon":-1.570732},{"name":"The Joshua Tree in Southampton","lat":50.910418,"lon":-1.384578},{"name":"The Dukes Head in Sunninghill","lat":51.403789,"lon":-0.655484},{"name":"The Keys in Totton","lat":50.918619,"lon":-1.488239},{"name":"The Dog House in Swanwick","lat":50.880163,"lon":-1.296357},{"name":"Drummond Arms in Southampton","lat":50.930494,"lon":-1.387394},{"name":"The Duke Of Wellington in Southampton","lat":50.898855,"lon":-1.405791},{"name":"Elephant and Castle in Totton","lat":50.918605,"lon":-1.487059},{"name":"Farmers Home in Botley","lat":50.941454,"lon":-1.266687},{"name":"The Nags Head in Sunningdale","lat":51.399772,"lon":-0.631153},{"name":"The Fox and Hounds in Southampton","lat":50.918274,"lon":-1.356988},{"name":"The Freemantle Arms in Southampton","lat":50.91503,"lon":-1.42915},{"name":"The Gamekeeper in Woodlands","lat":50.905108,"lon":-1.539884},{"name":"The Spitfire in Southampton","lat":50.907444,"lon":-1.404245},{"name":"Gordon Arms in Southampton","lat":50.923154,"lon":-1.395522},{"name":"The Ferryman in Warsash","lat":50.852927,"lon":-1.297028},{"name":"The Griffin in Southampton","lat":50.924671,"lon":-1.434417},{"name":"Hampshire Bowman in Bishops Waltham","lat":50.961433,"lon":-1.181077},{"name":"The Happy Cheese in Ashurst","lat":50.89203,"lon":-1.522657},{"name":"Hare and Hounds in Southampton","lat":50.920072,"lon":-1.336293},{"name":"The Hobbit in Southampton","lat":50.918788,"lon":-1.395167},{"name":"The Horse and Jockey in Botley","lat":50.902848,"lon":-1.251392},{"name":"Humble Plum in Southampton","lat":50.916758,"lon":-1.353689},{"name":"The Royal Oak in Sunningdale","lat":51.399057,"lon":-0.63437},{"name":"The Hurdles in Droxford","lat":50.963566,"lon":-1.127938},{"name":"The Ice House in Southampton","lat":50.92759,"lon":-1.437284},{"name":"The Joiners in Southampton","lat":50.904391,"lon":-1.396405},{"name":"The Jolly Sailor in Fawley","lat":50.8265,"lon":-1.340546},{"name":"The Ketch Rigger in Hamble","lat":50.85577,"lon":-1.316904},{"name":"Key and Anchor in Southampton","lat":50.909328,"lon":-1.422986},{"name":"The Bold Forester in Sarisbury Green","lat":50.875894,"lon":-1.283592},{"name":"Richmond Arms in Bath","lat":51.395957,"lon":-2.362334},{"name":"King and Queen in Hamble","lat":50.858571,"lon":-1.314505},{"name":"The Kings Arms in Southampton","lat":50.923136,"lon":-1.4326},{"name":"The Linden Tree in Bursledon","lat":50.88828,"lon":-1.315619},{"name":"The Stag in Ascot","lat":51.410636,"lon":-0.671938},{"name":"Madison House in Southampton","lat":50.917804,"lon":-1.415024},{"name":"Malt and Hops in Hythe","lat":50.866827,"lon":-1.397772},{"name":"The Manor House in Southampton","lat":50.901335,"lon":-1.374459},{"name":"The Master Builder in Southampton","lat":50.930075,"lon":-1.345331},{"name":"The Swinley in Ascot","lat":51.402902,"lon":-0.671343},{"name":"The Mountbatten in Southampton","lat":50.94064,"lon":-1.449054},{"name":"The New Victoria in Southampton","lat":50.923491,"lon":-1.382514},{"name":"Old Farmhouse in Southampton","lat":50.914695,"lon":-1.392474},{"name":"The Old Farmhouse in Totton","lat":50.917242,"lon":-1.503275},{"name":"The Old Ship in Swanwick","lat":50.880896,"lon":-1.295755},{"name":"The Peg and Parrot in Totton","lat":50.914901,"lon":-1.488008},{"name":"The Mitre in Southampton","lat":50.926766,"lon":-1.39086},{"name":"Pig and Whistle in Southampton","lat":50.91214,"lon":-1.420792},